# NMEA log started 2026-06-15 14:23:45 UTC
# Device: iPhone Simulator / GPSLogger
# Location: University of Memphis area

$GPGGA,142345,3507.1157,N,08956.3223,W,1,09,0.8,77.0,M,-29.5,M,,*46
$GPRMC,142345,A,3507.1157,N,08956.3223,W,2.5,90.0,150626,,*33
$GPGSA,A,3,5,12,15,18,21,24,25,29,31,,,,1.8,0.8,1.6*04
$GPGSV,3,1,09,05,45,120,38,12,67,180,42,15,30,075,35,18,55,240,40*7B
$GPGSV,3,2,09,21,22,310,32,24,78,090,45,25,15,350,28,29,40,200,36*77
$GPGSV,3,3,09,31,60,060,41,,,,,,,,,,,,*47
$GPVTG,90.0,T,,M,2.5,N,4.6,K,A*31
$GPRMC,142345,V,0000.0000,N,00000.0000,E,0.0,0.0,150626,,*09
$GPGGA,142345,3507.1157,N,08956.3223,W,0,09,0.8,77.0,M,-29.5,M,,*47
$GPGGA,142346,3507.1141,N,08956.3225,W,1,08,0.8,75.2,M,-29.5,M,,*45
$GPRMC,142346,A,3507.1141,N,08956.3225,W,2.4,90.0,150626,,*30
$GPGGA,142346,35
$GPRMC,142346,V,0000.0000,N,00000.0000,E,0.0,0.0,150626,,*0A
$GPGGA,142346,3507.1141,N,08956.3225,W,0,08,0.8,75.2,M,-29.5,M,,*44
$GPGGA,142347,3507.1185,N,08956.3165,W,1,07,0.9,76.7,M,-29.5,M,,*43
$GPRMC,142347,A,3507.1185,N,08956.3165,W,2.4,90.0,150626,,*3E
$GPRMC,142347,V,0000.0000,N,00000.0000,E,0.0,0.0,150626,,*0B
$GPGGA,142347,3507.1185,N,08956.3165,W,0,07,0.9,76.7,M,-29.5,M,,*42
$GPGGA,142348,3507.1173,N,08956.3186,W,1,08,1.0,75.2,M,-29.5,M,,*49
$GPRMC,142348,A,3507.1173,N,08956.3186,W,2.0,90.0,150626,,*31
$GPRMC,142348,V,0000.0000,N,00000.0000,E,0.0,0.0,150626,,*04
$GPGGA,142348,3507.1173,N,08956.3186,W,0,08,1.0,75.2,M,-29.5,M,,*48
$GPGGA,142349,3507.1172,N,08956.3176,W,1,08,0.9,75.8,M,-29.5,M,,*44
$GPRMC,142349,A,3507.1172,N,08956.3176,W,2.3,90.0,150626,,*3D
$GPRMC,142349,V,0000.0000,N,00000.0000,E,0.0,0.0,150626,,*05
$GPGGA,142349,3507.1172,N,08956.3176,W,0,08,0.9,75.8,M,-29.5,M,,*45
$GPGGA,142350,3507.1161,N,08956.3156,W,1,09,1.0,78.2,M,-29.5,M,,*42
$GPRMC,142350,A,3507.1161,N,08956.3156,W,2.4,90.0,150626,,*32
$GPGSA,A,3,5,12,15,18,21,24,25,29,31,,,,1.8,1.0,1.5*0E
$GPGSV,3,1,09,05,45,120,38,12,67,180,42,15,30,075,35,18,55,240,40*7B
$GPGSV,3,2,09,21,22,310,32,24,78,090,45,25,15,350,28,29,40,200,36*77
$GPGSV,3,3,09,31,60,060,41,,,,,,,,,,,,*47
$GPVTG,90.0,T,,M,2.4,N,4.5,K,A*33
$GPGGA,142351,3507.1159,N,08956.3155,W,1,08,0.8,75.8,M,-29.5,M,,*44
$GPRMC,142351,A,3507.1159,N,08956.3155,W,3.3,90.0,150626,,*3D
$GPGGA,142352,3507.1131,N,08956.3166,W,1,08,0.8,76.9,M,-29.5,M,,*4B
$GPRMC,142352,A,3507.1131,N,08956.3166,W,2.1,90.0,150626,,*33
$GPGGA,142353,3507.1165,N,08956.3168,W,1,08,1.0,76.7,M,-29.5,M,,*42
$GPRMC,142353,A,3507.1165,N,08956.3168,W,2.9,90.0,150626,,*35
$GPGGA,142354,3507.1157,N,08956.3115,W,1,08,0.7,77.0,M,-29.5,M,,*4E
$GPRMC,142354,A,3507.1157,N,08956.3115,W,2.8,90.0,150626,,*38
$GPGGA,142355,3507.1136,N,08956.3156,W,1,08,1.2,76.4,M,-29.5,M,,*4E
$GPRMC,142355,A,3507.1136,N,08956.3156,W,2.3,90.0,150626,,*32
$GPGSA,A,3,5,12,15,18,21,24,25,29,,,,,1.8,1.2,1.4*0F
$GPGSV,2,1,08,05,45,120,38,12,67,180,42,15,30,075,35,18,55,240,40*7B
$GPGSV,2,2,08,21,22,310,32,24,78,090,45,25,15,350,28,29,40,200,36*77
$GPVTG,90.0,T,,M,2.3,N,4.2,K,A*33
####random_garbage_####@@##
$PGRMM,WGS 84*06
$GPGGA,142356,3507.1193,N,08956.3139,W,1,07,0.8,75.8,M,-29.5,M,,*40
$GPRMC,142356,A,3507.1193,N,08956.3139,W,2.7,90.0,150626,,*33
$GPGGA,142357,3507.1179,N,08956.3095,W,1,09,1.2,76.2,M,-29.5,M,,*4E
$GPRMC,142357,A,3507.1179,N,08956.3095,W,2.7,90.0,150626,,*31
$GPGGA,142358,3507.1186,N,08956.3106,W,1,07,0.8,76.8,M,-29.5,M,,*45
$GPRMC,142358,A,3507.1186,N,08956.3106,W,2.1,90.0,150626,,*33

$GPGGA,142358,3511.1234,N,08956.5678,W,1,08,0.9,76.0,M,-29.5,M,,
$GPGGA,142359,3507.1166,N,08956.3094,W,1,09,0.8,76.5,M,-29.5,M,,*43
$GPRMC,142359,A,3507.1166,N,08956.3094,W,2.9,90.0,150626,,*3E
$GPGGA,142400,3507.1167,N,08956.3120,W,1,08,0.9,76.7,M,-29.5,M,,*45
$GPRMC,142400,A,3507.1167,N,08956.3120,W,2.6,90.0,150626,,*35
$GPGSA,A,3,5,12,15,18,21,24,25,29,,,,,1.6,0.9,1.3*0C
$GPGSV,2,1,08,05,45,120,38,12,67,180,42,15,30,075,35,18,55,240,40*7B
$GPGSV,2,2,08,21,22,310,32,24,78,090,45,25,15,350,28,29,40,200,36*77
$GPVTG,90.0,T,,M,2.6,N,4.8,K,A*3C
$GPGGA,142401,3507.1156,N,08956.3111,W,1,09,1.0,76.7,M,-29.5,M,,*4D
$GPRMC,142401,A,3507.1156,N,08956.3111,W,2.7,90.0,150626,,*35
$GPGGA,142402,3507.1154,N,08956.3072,W,1,07,1.3,76.4,M,-29.5,M,,*46
$GPRMC,142402,A,3507.1154,N,08956.3072,W,3.3,90.0,150626,,*35
$GPGGA,142403,3507.1122,N,08956.3025,W,1,08,0.9,77.8,M,-29.5,M,,*4D
$GPRMC,142403,A,3507.1122,N,08956.3025,W,2.5,90.0,150626,,*30
$GPGGA,142404,3507.1161,N,08956.3046,W,1,08,0.7,76.1,M,-29.5,M,,*4E
$GPRMC,142404,A,3507.1161,N,08956.3046,W,2.5,90.0,150626,,*35
$GPGGA,142405,3507.1169,N,08956.3022,W,1,07,1.3,75.9,M,-29.5,M,,*44
$GPRMC,142405,A,3507.1169,N,08956.3022,W,2.4,90.0,150626,,*3F
$GPGSA,A,3,5,12,15,18,21,24,25,,,,,,2.0,1.3,1.5*0F
$GPGSV,2,1,07,05,45,120,38,12,67,180,42,15,30,075,35,18,55,240,40*74
$GPGSV,2,2,07,21,22,310,32,24,78,090,45,25,15,350,28,,,,*40
$GPVTG,90.0,T,,M,2.4,N,4.4,K,A*32
$GPGGA,142406,3507.1154,N,08956.3022,W,1,08,0.9,75.8,M,-29.5,M,,*4C
$GPRMC,142406,A,3507.1154,N,08956.3022,W,2.4,90.0,150626,,*32
$GPGGA,142407,3507.1220,N,08956.3027,W,1,08,0.8,76.6,M,-29.5,M,,*44
$GPRMC,142407,A,3507.1220,N,08956.3027,W,2.8,90.0,150626,,*3A
$GPGGA,142408,3507.1143,N,08956.2968,W,1,09,1.2,75.5,M,-29.5,M,,*44
$GPRMC,142408,A,3507.1143,N,08956.2968,W,2.7,90.0,150626,,*3F
$GPGGA,142409,3507.1146,N,08956.3013,W,1,08,1.1,75.6,M,-29.5,M,,*45
$GPRMC,142409,A,3507.1146,N,08956.3013,W,2.0,90.0,150626,,*38
$GPGGA,142410,3507.1163,N,08956.3004,W,1,08,0.8,76.8,M,-29.5,M,,*49
$GPRMC,142410,A,3507.1163,N,08956.3004,W,2.4,90.0,150626,,*35
$GPGSA,A,3,5,12,15,18,21,24,25,29,,,,,1.6,0.8,1.4*0A
$GPGSV,2,1,08,05,45,120,38,12,67,180,42,15,30,075,35,18,55,240,40*7B
$GPGSV,2,2,08,21,22,310,32,24,78,090,45,25,15,350,28,29,40,200,36*77
$GPVTG,90.0,T,,M,2.4,N,4.5,K,A*33
$GPGGA,142411,3507.1163,N,08956.2987,W,1,08,0.8,77.1,M,-29.5,M,,*43
$GPRMC,142411,A,3507.1163,N,08956.2987,W,2.2,90.0,150626,,*31
$GPGGA,142412,3507.1160,N,08956.2974,W,1,08,1.3,74.8,M,-29.5,M,,*4F
$GPRMC,142412,A,3507.1160,N,08956.2974,W,2.7,90.0,150626,,*38
$GPGGA,142413,3507.1150,N,08956.2967,W,1,08,1.2,75.8,M,-29.5,M,,*4F
$GPRMC,142413,A,3507.1150,N,08956.2967,W,3.1,90.0,150626,,*3F
$GPGGA,142414,3507.1168,N,08956.2974,W,1,08,1.2,75.6,M,-29.5,M,,*4F
$GPRMC,142414,A,3507.1168,N,08956.2974,W,2.7,90.0,150626,,*36
$GPGGA,142415,3507.1162,N,08956.2972,W,1,10,1.0,76.3,M,-29.5,M,,*4F
$GPRMC,142415,A,3507.1162,N,08956.2972,W,1.9,90.0,150626,,*36
$GPGSA,A,3,5,12,15,18,21,24,25,29,31,32,,,2.1,1.0,1.8*08
$GPGSV,3,1,10,05,45,120,38,12,67,180,42,15,30,075,35,18,55,240,40*73
$GPGSV,3,2,10,21,22,310,32,24,78,090,45,25,15,350,28,29,40,200,36*7F
$GPGSV,3,3,10,31,60,060,41,32,35,145,37,,,,,,,,*7C
$GPVTG,90.0,T,,M,1.9,N,3.6,K,A*39
$GPGGA,142416,3507.1175,N,08956.2935,W,1,09,1.3,75.7,M,-29.5,M,,*45
$GPRMC,142416,A,3507.1175,N,08956.2935,W,2.5,90.0,150626,,*3F
$GPGGA,142417,3507.1170,N,08956.2964,W,1,08,0.9,75.9,M,-29.5,M,,*41
$GPRMC,142417,A,3507.1170,N,08956.2964,W,3.1,90.0,150626,,*3A
$GPGGA,142418,3507.1155,N,08956.2915,W,1,08,1.0,76.8,M,-29.5,M,,*45
$GPRMC,142418,A,3507.1155,N,08956.2915,W,2.2,90.0,150626,,*36
$GPGGA,142419,3507.1132,N,08956.2901,W,1,10,1.0,76.9,M,-29.5,M,,*48
$GPRMC,142419,A,3507.1132,N,08956.2901,W,2.4,90.0,150626,,*35
$GPGGA,142420,3507.1163,N,08956.2922,W,1,09,1.1,76.9,M,-29.5,M,,*4E
$GPRMC,142420,A,3507.1163,N,08956.2922,W,2.9,90.0,150626,,*37
$GPGSA,A,3,5,12,15,18,21,24,25,29,31,,,,1.6,1.1,1.1*05
$GPGSV,3,1,09,05,45,120,38,12,67,180,42,15,30,075,35,18,55,240,40*7B
$GPGSV,3,2,09,21,22,310,32,24,78,090,45,25,15,350,28,29,40,200,36*77
$GPGSV,3,3,09,31,60,060,41,,,,,,,,,,,,*47
$GPVTG,90.0,T,,M,2.9,N,5.4,K,A*3E
$GPGGA,142421,3507.1210,N,08956.2888,W,1,08,0.9,75.5,M,-29.5,M,,*4E
$GPRMC,142421,A,3507.1210,N,08956.2888,W,2.0,90.0,150626,,*39
$GPGGA,142422,3507.1190,N,08956.2893,W,1,08,0.8,76.0,M,-29.5,M,,*4B
$GPRMC,142422,A,3507.1190,N,08956.2893,W,2.6,90.0,150626,,*3D
$GPGGA,142423,3507.1173,N,08956.2870,W,1,08,1.3,76.2,M,-29.5,M,,*42
$GPRMC,142423,A,3507.1173,N,08956.2870,W,2.0,90.0,150626,,*3A
$GPGGA,142424,3507.1184,N,08956.2894,W,1,08,1.2,76.5,M,-29.5,M,,*41
$GPRMC,142424,A,3507.1184,N,08956.2894,W,2.2,90.0,150626,,*3D
$GPGGA,142425,3507.1162,N,08956.2851,W,1,08,0.8,76.2,M,-29.5,M,,*4D
$GPRMC,142425,A,3507.1162,N,08956.2851,W,2.7,90.0,150626,,*38
$GPGSA,A,3,5,12,15,18,21,24,25,29,,,,,1.8,0.8,1.6*06
$GPGSV,2,1,08,05,45,120,38,12,67,180,42,15,30,075,35,18,55,240,40*7B
$GPGSV,2,2,08,21,22,310,32,24,78,090,45,25,15,350,28,29,40,200,36*77
$GPVTG,90.0,T,,M,2.7,N,4.9,K,A*3C
$GPGGA,142426,3507.1165,N,08956.2841,W,1,09,0.7,75.8,M,-29.5,M,,*4F
$GPRMC,142426,A,3507.1165,N,08956.2841,W,3.0,90.0,150626,,*3B
$GPGGA,142427,3507.1187,N,08956.2871,W,1,10,1.1,76.1,M,-29.5,M,,*44
$GPRMC,142427,A,3507.1187,N,08956.2871,W,1.9,90.0,150626,,*3E
$GPGGA,142428,3507.1151,N,08956.2835,W,1,09,1.0,76.5,M,-29.5,M,,*4D
$GPRMC,142428,A,3507.1151,N,08956.2835,W,2.3,90.0,150626,,*33
$GPGGA,142429,3507.1166,N,08956.2820,W,1,08,1.2,77.2,M,-29.5,M,,*49
$GPRMC,142429,A,3507.1166,N,08956.2820,W,2.3,90.0,150626,,*32
$PGRMM,WGS 84*06
$GPGGA,142430,3507.1085,N,08956.2843,W,1,10,1.3,77.3,M,-29.5,M,,*41
$GPRMC,142430,A,3507.1085,N,08956.2843,W,2.2,90.0,150626,,*32
$GPGSA,A,3,5,12,15,18,21,24,25,29,31,32,,,1.6,1.3,1.0*07
$GPGSV,3,1,10,05,45,120,38,12,67,180,42,15,30,075,35,18,55,240,40*73
$GPGSV,3,2,10,21,22,310,32,24,78,090,45,25,15,350,28,29,40,200,36*7F
$GPGSV,3,3,10,31,60,060,41,32,35,145,37,,,,,,,,*7C
$GPVTG,90.0,T,,M,2.2,N,4.1,K,A*31
$GPGGA,142431,3507.1151,N,08956.2813,W,1,08,1.2,76.1,M,-29.5,M,,*46
$GPRMC,142431,A,3507.1151,N,08956.2813,W,2.9,90.0,150626,,*35
$GPGGA,142432,3507.1163,N,08956.2803,W,1,08,0.9,77.5,M,-29.5,M,,*4A
$GPRMC,142432,A,3507.1163,N,08956.2803,W,2.3,90.0,150626,,*3C
$GPGGA,142433,3507.1174,N,08956.2817,W,1,10,0.7,78.0,M,-29.5,M,,*45
$GPRMC,142433,A,3507.1174,N,08956.2817,W,3.3,90.0,150626,,*3F
$GPGGA,142434,3507.1141,N,08956.2787,W,1,08,1.1,77.7,M,-29.5,M,,*44
$GPRMC,142434,A,3507.1141,N,08956.2787,W,2.0,90.0,150626,,*3A
$GPGGA,142435,3507.1141,N,08956.2777,W,1,10,0.8,75.8,M,-29.5,M,,*46
$GPRMC,142435,A,3507.1141,N,08956.2777,W,2.5,90.0,150626,,*31
$GPGSA,A,3,5,12,15,18,21,24,25,29,31,32,,,1.9,0.8,1.7*05
$GPGSV,3,1,10,05,45,120,38,12,67,180,42,15,30,075,35,18,55,240,40*73
$GPGSV,3,2,10,21,22,310,32,24,78,090,45,25,15,350,28,29,40,200,36*7F
$GPGSV,3,3,10,31,60,060,41,32,35,145,37,,,,,,,,*7C
$GPVTG,90.0,T,,M,2.5,N,4.6,K,A*31
$GPGGA,142436,3507.1149,N,08956.2753,W,1,08,1.2,77.2,M,-29.5,M,,*41
$GPRMC,142436,A,3507.1149,N,08956.2753,W,2.3,90.0,150626,,*3A
$GPGGA,142437,3507.1185,N,08956.2747,W,1,09,1.0,76.5,M,-29.5,M,,*40
$GPRMC,142437,A,3507.1185,N,08956.2747,W,1.9,90.0,150626,,*37
$GPGGA,142438,3507.1151,N,08956.2768,W,1,09,1.0,76.2,M,-29.5,M,,*4C
$GPRMC,142438,A,3507.1151,N,08956.2768,W,2.2,90.0,150626,,*34
$GPGGA,142439,3507.1158,N,08956.2788,W,1,09,1.0,75.9,M,-29.5,M,,*42
$GPRMC,142439,A,3507.1158,N,08956.2788,W,2.4,90.0,150626,,*34
$GPGGA,142440,3507.1162,N,08956.2724,W,1,08,0.7,76.5,M,-29.5,M,,*4B
$GPRMC,142440,A,3507.1162,N,08956.2724,W,3.0,90.0,150626,,*30
$GPGSA,A,3,5,12,15,18,21,24,25,29,,,,,1.2,0.7,1.0*05
$GPGSV,2,1,08,05,45,120,38,12,67,180,42,15,30,075,35,18,55,240,40*7B
$GPGSV,2,2,08,21,22,310,32,24,78,090,45,25,15,350,28,29,40,200,36*77
$GPVTG,90.0,T,,M,3.0,N,5.6,K,A*34
$GPGGA,142441,3507.1175,N,08956.2725,W,1,07,0.9,76.5,M,-29.5,M,,*4C
$GPRMC,142441,A,3507.1175,N,08956.2725,W,2.2,90.0,150626,,*35
$GPGGA,142442,3507.1179,N,08956.2691,W,1,08,0.8,76.3,M,-29.5,M,,*45
$GPRMC,142442,A,3507.1179,N,08956.2691,W,2.7,90.0,150626,,*31
$GPGGA,142443,3507.1127,N,08956.2696,W,1,09,0.7,76.4,M,-29.5,M,,*41
$GPRMC,142443,A,3507.1127,N,08956.2696,W,2.9,90.0,150626,,*32
$GPGGA,142444,3507.1161,N,08956.2677,W,1,09,1.1,77.1,M,-29.5,M,,*48
$GPRMC,142444,A,3507.1161,N,08956.2677,W,2.7,90.0,150626,,*36
$GPGGA,142445,3507.1188,N,08956.2706,W,1,08,1.0,75.6,M,-29.5,M,,*4C
$GPRMC,142445,A,3507.1188,N,08956.2706,W,2.1,90.0,150626,,*31
$GPGSA,A,3,5,12,15,18,21,24,25,29,,,,,1.7,1.0,1.4*02
$GPGSV,2,1,08,05,45,120,38,12,67,180,42,15,30,075,35,18,55,240,40*7B
$GPGSV,2,2,08,21,22,310,32,24,78,090,45,25,15,350,28,29,40,200,36*77
$GPVTG,90.0,T,,M,2.1,N,3.9,K,A*3D
$GPGGA,142446,3507.1149,N,08956.2655,W,1,07,1.0,76.1,M,-29.5,M,,*4E
$GPRMC,142446,A,3507.1149,N,08956.2655,W,2.2,90.0,150626,,*3B
$GPGGA,142447,3507.1183,N,08956.2692,W,1,08,1.3,76.3,M,-29.5,M,,*4C
$GPRMC,142447,A,3507.1183,N,08956.2692,W,2.5,90.0,150626,,*30
$GPGGA,142448,3507.1189,N,08956.2657,W,1,08,0.8,76.6,M,-29.5,M,,*4F
$GPRMC,142448,A,3507.1189,N,08956.2657,W,2.0,90.0,150626,,*39
$GPGGA,142449,3507.1143,N,08956.2687,W,1,08,1.1,77.5,M,-29.5,M,,*4F
$GPRMC,142449,A,3507.1143,N,08956.2687,W,2.2,90.0,150626,,*31
$GPGGA,142450,3507.1165,N,08956.2683,W,1,10,1.0,76.4,M,-29.5,M,,*4F
$GPRMC,142450,A,3507.1165,N,08956.2683,W,2.5,90.0,150626,,*3E
$GPGSA,A,3,5,12,15,18,21,24,25,29,31,32,,,1.6,1.0,1.3*07
$GPGSV,3,1,10,05,45,120,38,12,67,180,42,15,30,075,35,18,55,240,40*73
$GPGSV,3,2,10,21,22,310,32,24,78,090,45,25,15,350,28,29,40,200,36*7F
$GPGSV,3,3,10,31,60,060,41,32,35,145,37,,,,,,,,*7C
$GPVTG,90.0,T,,M,2.5,N,4.7,K,A*30
$GPGGA,142451,3507.1167,N,08956.2617,W,1,09,1.0,76.0,M,-29.5,M,,*4D
$GPRMC,142451,A,3507.1167,N,08956.2617,W,2.9,90.0,150626,,*3C
$PGRMM,WGS 84*06
$GPGGA,142452,3507.1149,N,08956.2623,W,1,07,1.1,76.1,M,-29.5,M,,*4B
$GPRMC,142452,A,3507.1149,N,08956.2623,W,2.6,90.0,150626,,*3B
$GPGGA,142453,3507.1140,N,08956.2617,W,1,09,1.0,76.8,M,-29.5,M,,*42
$GPRMC,142453,A,3507.1140,N,08956.2617,W,2.7,90.0,150626,,*35
$GPGGA,142454,3507.1127,N,08956.2614,W,1,09,1.0,77.1,M,-29.5,M,,*4F
$GPRMC,142454,A,3507.1127,N,08956.2614,W,2.5,90.0,150626,,*32
$GPGGA,142455,3507.1130,N,08956.2574,W,1,08,1.0,74.8,M,-29.5,M,,*46
$GPRMC,142455,A,3507.1130,N,08956.2574,W,3.3,90.0,150626,,*37
$GPGSA,A,3,5,12,15,18,21,24,25,29,,,,,1.6,1.0,1.2*05
$GPGSV,2,1,08,05,45,120,38,12,67,180,42,15,30,075,35,18,55,240,40*7B
$GPGSV,2,2,08,21,22,310,32,24,78,090,45,25,15,350,28,29,40,200,36*77
$GPVTG,90.0,T,,M,3.3,N,6.1,K,A*33
$GPGGA,142456,3507.1140,N,08956.2577,W,1,08,1.3,74.4,M,-29.5,M,,*4E
$GPRMC,142456,A,3507.1140,N,08956.2577,W,3.0,90.0,150626,,*33
$GPGGA,142457,3507.1163,N,08956.2587,W,1,08,0.7,77.7,M,-29.5,M,,*44
$GPRMC,142457,A,3507.1163,N,08956.2587,W,3.0,90.0,150626,,*3C
$GPGGA,142458,3507.1150,N,08956.2597,W,1,10,1.0,76.1,M,-29.5,M,,*42
$GPRMC,142458,A,3507.1150,N,08956.2597,W,3.1,90.0,150626,,*33
$GPGGA,142459,3507.1202,N,08956.2541,W,1,07,1.0,75.2,M,-29.5,M,,*4A
$GPRMC,142459,A,3507.1202,N,08956.2541,W,2.6,90.0,150626,,*3B
$GPGGA,142500,3507.1174,N,08956.2542,W,1,08,0.8,75.8,M,-29.5,M,,*4A
$GPRMC,142500,A,3507.1174,N,08956.2542,W,1.9,90.0,150626,,*3B
$GPGSA,A,3,5,12,15,18,21,24,25,29,,,,,1.7,0.8,1.5*0A
$GPGSV,2,1,08,05,45,120,38,12,67,180,42,15,30,075,35,18,55,240,40*7B
$GPGSV,2,2,08,21,22,310,32,24,78,090,45,25,15,350,28,29,40,200,36*77
$GPVTG,90.0,T,,M,1.9,N,3.5,K,A*3A
$GPGGA,142501,3507.1147,N,08956.2566,W,1,08,1.2,74.9,M,-29.5,M,,*46
$GPRMC,142501,A,3507.1147,N,08956.2566,W,2.1,90.0,150626,,*37
$GPGGA,142502,3507.1148,N,08956.2535,W,1,08,1.2,76.0,M,-29.5,M,,*47
$GPRMC,142502,A,3507.1148,N,08956.2535,W,2.7,90.0,150626,,*3B
$GPGGA,142503,3507.1169,N,08956.2549,W,1,10,1.1,76.5,M,-29.5,M,,*41
$GPRMC,142503,A,3507.1169,N,08956.2549,W,3.3,90.0,150626,,*37
$GPGGA,142504,3507.1147,N,08956.2534,W,1,09,1.2,75.6,M,-29.5,M,,*4B
$GPRMC,142504,A,3507.1147,N,08956.2534,W,2.2,90.0,150626,,*36
$GPGGA,142505,3507.1161,N,08956.2520,W,1,08,0.9,76.7,M,-29.5,M,,*42
$GPRMC,142505,A,3507.1161,N,08956.2520,W,2.4,90.0,150626,,*30
$GPGSA,A,3,5,12,15,18,21,24,25,29,,,,,1.6,0.9,1.3*0C
$GPGSV,2,1,08,05,45,120,38,12,67,180,42,15,30,075,35,18,55,240,40*7B
$GPGSV,2,2,08,21,22,310,32,24,78,090,45,25,15,350,28,29,40,200,36*77
$GPVTG,90.0,T,,M,2.4,N,4.4,K,A*32
$GPGGA,142506,3507.1158,N,08956.2496,W,1,10,0.9,75.4,M,-29.5,M,,*4E
$GPRMC,142506,A,3507.1158,N,08956.2496,W,3.3,90.0,150626,,*33
$GPGGA,142507,3507.1148,N,08956.2522,W,1,09,0.9,77.3,M,-29.5,M,,*4D
$GPRMC,142507,A,3507.1148,N,08956.2522,W,1.9,90.0,150626,,*35

$GPGGA,142508,3507.1131,N,08956.2506,W,1,08,1.0,76.3,M,-29.5,M,,*42
$GPRMC,142508,A,3507.1131,N,08956.2506,W,2.7,90.0,150626,,*3F
$GPGGA,142509,3507.1133,N,08956.2474,W,1,07,1.3,76.1,M,-29.5,M,,*4B
$GPRMC,142509,A,3507.1133,N,08956.2474,W,2.4,90.0,150626,,*3B
$GPGGA,142510,3507.1146,N,08956.2497,W,1,09,1.1,76.1,M,-29.5,M,,*40
$GPRMC,142510,A,3507.1146,N,08956.2497,W,2.9,90.0,150626,,*31
$GPGSA,A,3,5,12,15,18,21,24,25,29,31,,,,2.0,1.1,1.7*06
$GPGSV,3,1,09,05,45,120,38,12,67,180,42,15,30,075,35,18,55,240,40*7B
$GPGSV,3,2,09,21,22,310,32,24,78,090,45,25,15,350,28,29,40,200,36*77
$GPGSV,3,3,09,31,60,060,41,,,,,,,,,,,,*47
$GPVTG,90.0,T,,M,2.9,N,5.4,K,A*3E
$GPGGA,142511,3507.1155,N,08956.2474,W,1,08,0.8,76.6,M,-29.5,M,,*40
$GPRMC,142511,A,3507.1155,N,08956.2474,W,2.3,90.0,150626,,*35
$GPGGA,142512,3507.1185,N,08956.2429,W,1,09,1.1,76.7,M,-29.5,M,,*4E
$GPRMC,142512,A,3507.1185,N,08956.2429,W,2.0,90.0,150626,,*30
$GPGGA,142513,3507.1171,N,08956.2465,W,1,08,0.9,75.6,M,-29.5,M,,*46
$GPRMC,142513,A,3507.1171,N,08956.2465,W,1.9,90.0,150626,,*38
$GPGGA,142513,35
$GPGGA,142514,3507.1160,N,08956.2425,W,1,07,0.9,76.2,M,-29.5,M,,*4D
$GPRMC,142514,A,3507.1160,N,08956.2425,W,2.5,90.0,150626,,*34
$GPGGA,142515,3507.1165,N,08956.2423,W,1,09,0.8,76.6,M,-29.5,M,,*44
$GPRMC,142515,A,3507.1165,N,08956.2423,W,2.2,90.0,150626,,*31
$GPGSA,A,3,5,12,15,18,21,24,25,29,31,,,,1.6,0.8,1.4*08
$GPGSV,3,1,09,05,45,120,38,12,67,180,42,15,30,075,35,18,55,240,40*7B
$GPGSV,3,2,09,21,22,310,32,24,78,090,45,25,15,350,28,29,40,200,36*77
$GPGSV,3,3,09,31,60,060,41,,,,,,,,,,,,*47
$GPVTG,90.0,T,,M,2.2,N,4.0,K,A*30
$GPGGA,142516,3507.1115,N,08956.2406,W,1,08,1.0,76.7,M,-29.5,M,,*4E
$GPRMC,142516,A,3507.1115,N,08956.2406,W,2.9,90.0,150626,,*39
$GPGGA,142517,3507.1178,N,08956.2391,W,1,08,1.3,75.8,M,-29.5,M,,*42
$GPRMC,142517,A,3507.1178,N,08956.2391,W,2.0,90.0,150626,,*33
$GPGGA,142518,3507.1142,N,08956.2426,W,1,08,1.2,75.9,M,-29.5,M,,*4F
$GPRMC,142518,A,3507.1142,N,08956.2426,W,2.5,90.0,150626,,*3B
$GPGGA,142519,3507.1159,N,08956.2347,W,1,07,1.2,75.6,M,-29.5,M,,*44
$GPRMC,142519,A,3507.1159,N,08956.2347,W,2.4,90.0,150626,,*31
$GPGGA,142520,3507.1145,N,08956.2389,W,1,09,1.3,76.9,M,-29.5,M,,*42
$GPRMC,142520,A,3507.1145,N,08956.2389,W,2.8,90.0,150626,,*38
$GPGSA,A,3,5,12,15,18,21,24,25,29,31,,,,1.8,1.3,1.3*0B
$GPGSV,3,1,09,05,45,120,38,12,67,180,42,15,30,075,35,18,55,240,40*7B
$GPGSV,3,2,09,21,22,310,32,24,78,090,45,25,15,350,28,29,40,200,36*77
$GPGSV,3,3,09,31,60,060,41,,,,,,,,,,,,*47
$GPVTG,90.0,T,,M,2.8,N,5.2,K,A*39
$GPGGA,142521,3507.1150,N,08956.2375,W,1,08,1.2,76.6,M,-29.5,M,,*4B
$GPRMC,142521,A,3507.1150,N,08956.2375,W,1.8,90.0,150626,,*3D
$GPGGA,142522,3507.1170,N,08956.2388,W,1,09,1.2,76.3,M,-29.5,M,,*4C
$GPRMC,142522,A,3507.1170,N,08956.2388,W,2.5,90.0,150626,,*30
$PGRMM,WGS 84*06
$GPGGA,142523,3507.1176,N,08956.2373,W,1,09,1.3,76.7,M,-29.5,M,,*4A
$GPRMC,142523,A,3507.1176,N,08956.2373,W,2.4,90.0,150626,,*32
$GPGGA,142524,3507.1141,N,08956.2309,W,1,08,0.8,75.5,M,-29.5,M,,*4E
$GPRMC,142524,A,3507.1141,N,08956.2309,W,1.9,90.0,150626,,*32
$GPGGA,142525,3507.1156,N,08956.2309,W,1,08,1.1,77.0,M,-29.5,M,,*46
$GPRMC,142525,A,3507.1156,N,08956.2309,W,2.8,90.0,150626,,*37
$GPGSA,A,3,5,12,15,18,21,24,25,29,,,,,1.9,1.1,1.5*0C
$GPGSV,2,1,08,05,45,120,38,12,67,180,42,15,30,075,35,18,55,240,40*7B
$GPGSV,2,2,08,21,22,310,32,24,78,090,45,25,15,350,28,29,40,200,36*77
$GPVTG,90.0,T,,M,2.8,N,5.3,K,A*38
$GPGGA,142526,3507.1172,N,08956.2288,W,1,08,0.9,75.0,M,-29.5,M,,*40
$GPRMC,142526,A,3507.1172,N,08956.2288,W,2.6,90.0,150626,,*34
$GPGGA,142527,3507.1176,N,08956.2349,W,1,07,1.0,77.1,M,-29.5,M,,*4D
$GPRMC,142527,A,3507.1176,N,08956.2349,W,3.2,90.0,150626,,*38
$GPGGA,142528,3507.1155,N,08956.2295,W,1,09,1.0,76.3,M,-29.5,M,,*4E
$GPRMC,142528,A,3507.1155,N,08956.2295,W,2.8,90.0,150626,,*3D
$GPGGA,142529,3507.1192,N,08956.2286,W,1,10,0.8,75.8,M,-29.5,M,,*4F
$GPRMC,142529,A,3507.1192,N,08956.2286,W,2.5,90.0,150626,,*38
$GPGGA,142530,3507.1174,N,08956.2325,W,1,08,0.8,76.8,M,-29.5,M,,*4D
$GPRMC,142530,A,3507.1174,N,08956.2325,W,2.5,90.0,150626,,*30
$GPGSA,A,3,5,12,15,18,21,24,25,29,,,,,1.4,0.8,1.1*0D
$GPGSV,2,1,08,05,45,120,38,12,67,180,42,15,30,075,35,18,55,240,40*7B
$GPGSV,2,2,08,21,22,310,32,24,78,090,45,25,15,350,28,29,40,200,36*77
$GPVTG,90.0,T,,M,2.5,N,4.7,K,A*30
$GPGGA,142531,3507.1138,N,08956.2295,W,1,09,1.1,74.9,M,-29.5,M,,*44
$GPRMC,142531,A,3507.1138,N,08956.2295,W,2.2,90.0,150626,,*34
$GPGGA,142532,3507.1155,N,08956.2264,W,1,08,1.0,76.7,M,-29.5,M,,*4E
$GPRMC,142532,A,3507.1155,N,08956.2264,W,3.0,90.0,150626,,*31
$GPGGA,142533,3507.1145,N,08956.2278,W,1,09,1.2,75.4,M,-29.5,M,,*40
$GPRMC,142533,A,3507.1145,N,08956.2278,W,1.7,90.0,150626,,*39
$GPGGA,142534,3507.1168,N,08956.2256,W,1,09,0.8,76.0,M,-29.5,M,,*48
$GPRMC,142534,A,3507.1168,N,08956.2256,W,2.8,90.0,150626,,*31
$GPGGA,142535,3507.1134,N,08956.2220,W,1,09,1.1,77.3,M,-29.5,M,,*4B
$GPRMC,142535,A,3507.1134,N,08956.2220,W,2.0,90.0,150626,,*30
$GPGSA,A,3,5,12,15,18,21,24,25,29,31,,,,1.9,1.1,1.6*0D
$GPGSV,3,1,09,05,45,120,38,12,67,180,42,15,30,075,35,18,55,240,40*7B
$GPGSV,3,2,09,21,22,310,32,24,78,090,45,25,15,350,28,29,40,200,36*77
$GPGSV,3,3,09,31,60,060,41,,,,,,,,,,,,*47
$GPVTG,90.0,T,,M,2.0,N,3.7,K,A*32
$GPGGA,142536,3507.1156,N,08956.2268,W,1,08,0.7,75.5,M,-29.5,M,,*42
$GPRMC,142536,A,3507.1156,N,08956.2268,W,3.2,90.0,150626,,*38
$GPGGA,142537,3507.1158,N,08956.2240,W,1,08,1.2,76.0,M,-29.5,M,,*45
$GPRMC,142537,A,3507.1158,N,08956.2240,W,2.0,90.0,150626,,*3E
$GPGGA,142538,3507.1145,N,08956.2216,W,1,08,0.9,76.8,M,-29.5,M,,*47
$GPRMC,142538,A,3507.1145,N,08956.2216,W,2.4,90.0,150626,,*3A
$GPGGA,142539,3507.1138,N,08956.2217,W,1,09,0.9,75.4,M,-29.5,M,,*43
$GPRMC,142539,A,3507.1138,N,08956.2217,W,2.5,90.0,150626,,*31
$GPGGA,142540,3507.1164,N,08956.2217,W,1,09,1.1,76.7,M,-29.5,M,,*4D
$GPRMC,142540,A,3507.1164,N,08956.2217,W,2.2,90.0,150626,,*31
$GPGSA,A,3,5,12,15,18,21,24,25,29,31,,,,2.1,1.1,1.8*08
$GPGSV,3,1,09,05,45,120,38,12,67,180,42,15,30,075,35,18,55,240,40*7B
$GPGSV,3,2,09,21,22,310,32,24,78,090,45,25,15,350,28,29,40,200,36*77
$GPGSV,3,3,09,31,60,060,41,,,,,,,,,,,,*47
$GPVTG,90.0,T,,M,2.2,N,4.0,K,A*30
$GPGGA,142541,3507.1191,N,08956.2205,W,1,09,1.3,76.1,M,-29.5,M,,*41
$GPRMC,142541,A,3507.1191,N,08956.2205,W,2.7,90.0,150626,,*3C
$GPGGA,142542,3507.1173,N,08956.2219,W,1,09,1.0,76.9,M,-29.5,M,,*48
$GPRMC,142542,A,3507.1173,N,08956.2219,W,2.7,90.0,150626,,*3E
$GPGGA,142543,3507.1171,N,08956.2164,W,1,07,1.3,76.3,M,-29.5,M,,*45
$GPRMC,142543,A,3507.1171,N,08956.2164,W,1.8,90.0,150626,,*38
$GPGGA,142544,3507.1165,N,08956.2114,W,1,07,1.2,76.5,M,-29.5,M,,*47
$GPRMC,142544,A,3507.1165,N,08956.2114,W,2.5,90.0,150626,,*33
$GPGGA,142545,3507.1178,N,08956.2141,W,1,07,0.7,76.4,M,-29.5,M,,*4F
$GPRMC,142545,A,3507.1178,N,08956.2141,W,2.5,90.0,150626,,*3E
$GPGSA,A,3,5,12,15,18,21,24,25,,,,,,1.4,0.7,1.2*0A
$GPGSV,2,1,07,05,45,120,38,12,67,180,42,15,30,075,35,18,55,240,40*74
$GPGSV,2,2,07,21,22,310,32,24,78,090,45,25,15,350,28,,,,*40
$GPVTG,90.0,T,,M,2.5,N,4.6,K,A*31
$GPGGA,142546,3507.1161,N,08956.2145,W,1,09,1.0,77.5,M,-29.5,M,,*48
$GPRMC,142546,A,3507.1161,N,08956.2145,W,2.6,90.0,150626,,*32
$GPGGA,142547,3507.1172,N,08956.2130,W,1,08,0.8,76.0,M,-29.5,M,,*45
$GPRMC,142547,A,3507.1172,N,08956.2130,W,2.3,90.0,150626,,*36
$GPGGA,142548,3507.1156,N,08956.2136,W,1,08,1.3,76.2,M,-29.5,M,,*42
$GPRMC,142548,A,3507.1156,N,08956.2136,W,2.6,90.0,150626,,*3C

$GPGGA,142549,3507.1164,N,08956.2156,W,1,09,0.9,76.6,M,-29.5,M,,*4A
$GPRMC,142549,A,3507.1164,N,08956.2156,W,2.5,90.0,150626,,*39
$GPGGA,142550,3507.1179,N,08956.2097,W,1,08,0.7,76.3,M,-29.5,M,,*48
$GPRMC,142550,A,3507.1179,N,08956.2097,W,2.6,90.0,150626,,*32
$GPGSA,A,3,5,12,15,18,21,24,25,29,,,,,1.4,0.7,1.2*01
$GPGSV,2,1,08,05,45,120,38,12,67,180,42,15,30,075,35,18,55,240,40*7B
$GPGSV,2,2,08,21,22,310,32,24,78,090,45,25,15,350,28,29,40,200,36*77
$GPVTG,90.0,T,,M,2.6,N,4.9,K,A*3D
$GPGGA,142551,3507.1159,N,08956.2080,W,1,10,0.7,77.1,M,-29.5,M,,*47
$GPRMC,142551,A,3507.1159,N,08956.2080,W,2.7,90.0,150626,,*36
$GPGGA,142552,3507.1176,N,08956.2105,W,1,08,1.3,77.5,M,-29.5,M,,*4D
$GPRMC,142552,A,3507.1176,N,08956.2105,W,2.8,90.0,150626,,*3B
$GPGGA,142553,3507.1145,N,08956.2097,W,1,08,1.0,77.0,M,-29.5,M,,*40
$GPRMC,142553,A,3507.1145,N,08956.2097,W,3.0,90.0,150626,,*39
$GPGGA,142554,3507.1146,N,08956.2096,W,1,07,0.7,75.3,M,-29.5,M,,*4D
$GPRMC,142554,A,3507.1146,N,08956.2096,W,2.1,90.0,150626,,*3C
$GPGGA,142555,3507.1136,N,08956.2094,W,1,10,1.1,76.5,M,-29.5,M,,*4D
$GPRMC,142555,A,3507.1136,N,08956.2094,W,2.7,90.0,150626,,*3E
$GPGSA,A,3,5,12,15,18,21,24,25,29,31,32,,,1.7,1.1,1.3*07
$GPGSV,3,1,10,05,45,120,38,12,67,180,42,15,30,075,35,18,55,240,40*73
$GPGSV,3,2,10,21,22,310,32,24,78,090,45,25,15,350,28,29,40,200,36*7F
$GPGSV,3,3,10,31,60,060,41,32,35,145,37,,,,,,,,*7C
$GPVTG,90.0,T,,M,2.7,N,4.9,K,A*3C
$GPGGA,142556,3507.1153,N,08956.2063,W,1,08,1.1,77.0,M,-29.5,M,,*48
$GPRMC,142556,A,3507.1153,N,08956.2063,W,2.8,90.0,150626,,*39
$GPGGA,142557,3507.1159,N,08956.2043,W,1,08,1.1,77.3,M,-29.5,M,,*42
$GPRMC,142557,A,3507.1159,N,08956.2043,W,1.3,90.0,150626,,*38
$GPGGA,142558,3507.1193,N,08956.2049,W,1,09,0.9,75.9,M,-29.5,M,,*41
$GPRMC,142558,A,3507.1193,N,08956.2049,W,3.6,90.0,150626,,*3C
$GPGGA,142559,3507.1139,N,08956.2064,W,1,08,1.2,76.4,M,-29.5,M,,*4A
$GPRMC,142559,A,3507.1139,N,08956.2064,W,2.3,90.0,150626,,*36
$GPGGA,142600,3507.1186,N,08956.2003,W,1,09,1.1,76.7,M,-29.5,M,,*41
$GPRMC,142600,A,3507.1186,N,08956.2003,W,2.9,90.0,150626,,*36
$GPGSA,A,3,5,12,15,18,21,24,25,29,31,,,,1.8,1.1,1.4*0E
$GPGSV,3,1,09,05,45,120,38,12,67,180,42,15,30,075,35,18,55,240,40*7B
$GPGSV,3,2,09,21,22,310,32,24,78,090,45,25,15,350,28,29,40,200,36*77
$GPGSV,3,3,09,31,60,060,41,,,,,,,,,,,,*47
$GPVTG,90.0,T,,M,2.9,N,5.3,K,A*39
$GPGGA,142601,3507.1134,N,08956.2013,W,1,10,1.0,77.8,M,-29.5,M,,*4F
$GPRMC,142601,A,3507.1134,N,08956.2013,W,2.1,90.0,150626,,*37
$GPGGA,142602,3507.1145,N,08956.2015,W,1,08,0.9,78.0,M,-29.5,M,,*4A
$GPRMC,142602,A,3507.1145,N,08956.2015,W,3.0,90.0,150626,,*34
$GPGGA,142603,3507.1171,N,08956.1993,W,1,08,1.1,76.2,M,-29.5,M,,*4D
$GPRMC,142603,A,3507.1171,N,08956.1993,W,2.1,90.0,150626,,*36
$GPGGA,142604,3507.1195,N,08956.1986,W,1,10,1.0,77.4,M,-29.5,M,,*4B
$GPRMC,142604,A,3507.1195,N,08956.1986,W,3.4,90.0,150626,,*3B
$GPGGA,142605,3507.1149,N,08956.1943,W,1,09,0.9,76.6,M,-29.5,M,,*41
$GPRMC,142605,A,3507.1149,N,08956.1943,W,1.8,90.0,150626,,*3C
$GPGSA,A,3,5,12,15,18,21,24,25,29,31,,,,1.7,0.9,1.4*08
$GPGSV,3,1,09,05,45,120,38,12,67,180,42,15,30,075,35,18,55,240,40*7B
$GPGSV,3,2,09,21,22,310,32,24,78,090,45,25,15,350,28,29,40,200,36*77
$GPGSV,3,3,09,31,60,060,41,,,,,,,,,,,,*47
$GPVTG,90.0,T,,M,1.8,N,3.4,K,A*3A
$GPGGA,142606,3507.1182,N,08956.1950,W,1,08,1.3,78.6,M,-29.5,M,,*43
$GPRMC,142606,A,3507.1182,N,08956.1950,W,2.0,90.0,150626,,*31
$GPGGA,142607,3507.1160,N,08956.1961,W,1,09,1.0,77.2,M,-29.5,M,,*45
$GPRMC,142607,A,3507.1160,N,08956.1961,W,2.4,90.0,150626,,*3A
$GPGGA,142608,3507.1192,N,08956.1910,W,1,08,0.7,76.7,M,-29.5,M,,*42
$GPRMC,142608,A,3507.1192,N,08956.1910,W,1.7,90.0,150626,,*3E
$GPGGA,142609,3507.1123,N,08956.1950,W,1,09,0.7,75.7,M,-29.5,M,,*4F
$GPRMC,142609,A,3507.1123,N,08956.1950,W,2.3,90.0,150626,,*36
$GPGGA,142610,3507.1182,N,08956.1935,W,1,08,1.0,76.9,M,-29.5,M,,*45
$GPRMC,142610,A,3507.1182,N,08956.1935,W,2.3,90.0,150626,,*36
$GPGSA,A,3,5,12,15,18,21,24,25,29,,,,,1.9,1.0,1.6*0E
$GPGSV,2,1,08,05,45,120,38,12,67,180,42,15,30,075,35,18,55,240,40*7B
$GPGSV,2,2,08,21,22,310,32,24,78,090,45,25,15,350,28,29,40,200,36*77
$GPVTG,90.0,T,,M,2.3,N,4.3,K,A*32
$GPGGA,142611,3507.1135,N,08956.1914,W,1,10,0.8,78.0,M,-29.5,M,,*4C
$GPRMC,142611,A,3507.1135,N,08956.1914,W,2.0,90.0,150626,,*3B
$GPGGA,142612,3507.1150,N,08956.1926,W,1,09,0.9,76.1,M,-29.5,M,,*4B
$GPRMC,142612,A,3507.1150,N,08956.1926,W,2.7,90.0,150626,,*3D
$GPGGA,142613,3507.1137,N,08956.1914,W,1,08,1.1,76.4,M,-29.5,M,,*47
$GPRMC,142613,A,3507.1137,N,08956.1914,W,2.5,90.0,150626,,*3E
$GPGGA,142614,3507.1114,N,08956.1900,W,1,09,0.8,75.0,M,-29.5,M,,*4A
$GPRMC,142614,A,3507.1114,N,08956.1900,W,2.7,90.0,150626,,*3F
$GPGGA,142615,3507.1166,N,08956.1910,W,1,08,0.7,75.9,M,-29.5,M,,*48
$GPRMC,142615,A,3507.1166,N,08956.1910,W,2.0,0.0,150626,,*04
$GPGSA,A,3,5,12,15,18,21,24,25,29,,,,,1.5,0.7,1.3*01
$GPGSV,2,1,08,05,45,120,38,12,67,180,42,15,30,075,35,18,55,240,40*7B
$GPGSV,2,2,08,21,22,310,32,24,78,090,45,25,15,350,28,29,40,200,36*77
$GPVTG,0.0,T,,M,2.0,N,3.7,K,A*0B
$GPGGA,142616,3507.1188,N,08956.1919,W,1,08,1.0,76.6,M,-29.5,M,,*48
$GPRMC,142616,A,3507.1188,N,08956.1919,W,2.7,0.0,150626,,*09
$GPGGA,142617,3507.1149,N,08956.1906,W,1,10,1.1,75.5,M,-29.5,M,,*42
$GPRMC,142617,A,3507.1149,N,08956.1906,W,2.9,0.0,150626,,*05
$GPGGA,142618,3507.1177,N,08956.1884,W,1,08,1.0,77.6,M,-29.5,M,,*42
$GPRMC,142618,A,3507.1177,N,08956.1884,W,2.7,0.0,150626,,*02
$GPGGA,142619,3507.1203,N,08956.1909,W,1,08,0.9,77.5,M,-29.5,M,,*4C
$GPRMC,142619,A,3507.1203,N,08956.1909,W,2.2,0.0,150626,,*02
$GPGGA,142620,3507.1203,N,08956.1877,W,1,08,0.8,75.9,M,-29.5,M,,*41
$GPRMC,142620,A,3507.1203,N,08956.1877,W,3.1,0.0,150626,,*02
$GPGSA,A,3,5,12,15,18,21,24,25,29,,,,,1.8,0.8,1.6*06
$GPGSV,2,1,08,05,45,120,38,12,67,180,42,15,30,075,35,18,55,240,40*7B
$GPGSV,2,2,08,21,22,310,32,24,78,090,45,25,15,350,28,29,40,200,36*77
$GPVTG,0.0,T,,M,3.1,N,5.7,K,A*0D
$GPGGA,142621,3507.1216,N,08956.1889,W,1,08,0.7,76.6,M,-29.5,M,,*46
$GPRMC,142621,A,3507.1216,N,08956.1889,W,1.9,0.0,150626,,*0C
$GPGGA,142622,3507.1225,N,08956.1854,W,1,10,0.8,77.4,M,-29.5,M,,*40
$GPRMC,142622,A,3507.1225,N,08956.1854,W,2.3,0.0,150626,,*06
$GPGGA,142623,3507.1226,N,08956.1906,W,1,08,1.2,75.1,M,-29.5,M,,*41
$GPRMC,142623,A,3507.1226,N,08956.1906,W,3.7,0.0,150626,,*07
$GPGGA,142624,3507.1192,N,08956.1923,W,1,09,1.0,77.2,M,-29.5,M,,*4F
$GPRMC,142624,A,3507.1192,N,08956.1923,W,2.3,0.0,150626,,*0E
$GPGGA,142625,3507.1242,N,08956.1881,W,1,09,0.9,76.9,M,-29.5,M,,*4B
$GPRMC,142625,A,3507.1242,N,08956.1881,W,2.5,0.0,150626,,*0E
$GPGSA,A,3,5,12,15,18,21,24,25,29,31,,,,1.5,0.9,1.2*0C
$GPGSV,3,1,09,05,45,120,38,12,67,180,42,15,30,075,35,18,55,240,40*7B
$GPGSV,3,2,09,21,22,310,32,24,78,090,45,25,15,350,28,29,40,200,36*77
$GPGSV,3,3,09,31,60,060,41,,,,,,,,,,,,*47
$GPVTG,0.0,T,,M,2.5,N,4.7,K,A*09
$GPGGA,142626,3507.1225,N,08956.1891,W,1,08,1.0,76.6,M,-29.5,M,,*4E
$GPRMC,142626,A,3507.1225,N,08956.1891,W,2.4,0.0,150626,,*0C

$GPGGA,142627,3507.1226,N,08956.1910,W,1,08,0.7,77.2,M,-29.5,M,,*47
$GPRMC,142627,A,3507.1226,N,08956.1910,W,2.5,0.0,150626,,*07
$GPGGA,142628,3507.1250,N,08956.1890,W,1,09,0.8,76.1,M,-29.5,M,,*4C
$GPRMC,142628,A,3507.1250,N,08956.1890,W,2.8,0.0,150626,,*0D
$GPGGA,142629,3507.1287,N,08956.1914,W,1,10,0.8,75.0,M,-29.5,M,,*40
$GPRMC,142629,A,3507.1287,N,08956.1914,W,2.8,0.0,150626,,*0B
$GPGGA,142630,3507.1262,N,08956.1901,W,1,09,1.0,76.1,M,-29.5,M,,*44
$GPRMC,142630,A,3507.1262,N,08956.1901,W,2.1,0.0,150626,,*05
$GPGSA,A,3,5,12,15,18,21,24,25,29,31,,,,1.5,1.0,1.1*07
$GPGSV,3,1,09,05,45,120,38,12,67,180,42,15,30,075,35,18,55,240,40*7B
$GPGSV,3,2,09,21,22,310,32,24,78,090,45,25,15,350,28,29,40,200,36*77
$GPGSV,3,3,09,31,60,060,41,,,,,,,,,,,,*47
$GPVTG,0.0,T,,M,2.1,N,3.9,K,A*04
$GPGGA,142631,3507.1291,N,08956.1910,W,1,08,1.0,76.5,M,-29.5,M,,*4C
$GPRMC,142631,A,3507.1291,N,08956.1910,W,2.7,0.0,150626,,*0E
$GPGGA,142632,3507.1282,N,08956.1922,W,1,07,1.0,76.6,M,-29.5,M,,*40
$GPRMC,142632,A,3507.1282,N,08956.1922,W,2.9,0.0,150626,,*00
$GPGGA,142633,3507.1307,N,08956.1879,W,1,08,1.3,74.4,M,-29.5,M,,*4E
$GPRMC,142633,A,3507.1307,N,08956.1879,W,2.4,0.0,150626,,*0F
$GPGGA,142634,3507.1272,N,08956.1905,W,1,09,0.9,76.8,M,-29.5,M,,*44
$GPRMC,142634,A,3507.1272,N,08956.1905,W,2.4,0.0,150626,,*01
$GPGGA,142635,3507.1300,N,08956.1917,W,1,08,0.9,76.8,M,-29.5,M,,*43
$GPRMC,142635,A,3507.1300,N,08956.1917,W,2.3,0.0,150626,,*00
$GPGSA,A,3,5,12,15,18,21,24,25,29,,,,,1.5,0.9,1.2*0E
$GPGSV,2,1,08,05,45,120,38,12,67,180,42,15,30,075,35,18,55,240,40*7B
$GPGSV,2,2,08,21,22,310,32,24,78,090,45,25,15,350,28,29,40,200,36*77
$GPVTG,0.0,T,,M,2.3,N,4.3,K,A*0B
$GPGGA,142636,3507.1315,N,08956.1935,W,1,07,1.1,76.5,M,-29.5,M,,*4F
$GPRMC,142636,A,3507.1315,N,08956.1935,W,2.8,0.0,150626,,*0C
$GPGGA,142637,3507.1289,N,08956.1906,W,1,08,0.8,76.0,M,-29.5,M,,*48
$GPRMC,142637,A,3507.1289,N,08956.1906,W,2.6,0.0,150626,,*07
$GPGGA,142638,3507.1363,N,08956.1935,W,1,08,0.7,76.3,M,-29.5,M,,*4E
$GPRMC,142638,A,3507.1363,N,08956.1935,W,2.1,0.0,150626,,*0A
$GPGGA,142639,3507.1375,N,08956.1906,W,1,08,1.1,75.2,M,-29.5,M,,*4D
$GPRMC,142639,A,3507.1375,N,08956.1906,W,2.2,0.0,150626,,*0F
$GPGGA,142640,3507.1346,N,08956.1906,W,1,08,1.3,76.5,M,-29.5,M,,*45
$GPRMC,142640,A,3507.1346,N,08956.1906,W,2.4,0.0,150626,,*07
$GPGSA,A,3,5,12,15,18,21,24,25,29,,,,,1.9,1.3,1.4*0F
$GPGSV,2,1,08,05,45,120,38,12,67,180,42,15,30,075,35,18,55,240,40*7B
$GPGSV,2,2,08,21,22,310,32,24,78,090,45,25,15,350,28,29,40,200,36*77
$GPVTG,0.0,T,,M,2.4,N,4.4,K,A*0B
$GPGGA,142641,3507.1352,N,08956.1905,W,1,08,0.9,75.9,M,-29.5,M,,*46
$GPRMC,142641,A,3507.1352,N,08956.1905,W,2.5,0.0,150626,,*01
$GPGGA,142642,3507.1357,N,08956.1886,W,1,07,0.8,76.0,M,-29.5,M,,*4E
$GPRMC,142642,A,3507.1357,N,08956.1886,W,2.8,0.0,150626,,*00
$GPGGA,142643,3507.1357,N,08956.1916,W,1,08,0.9,77.1,M,-29.5,M,,*49
$GPRMC,142643,A,3507.1357,N,08956.1916,W,2.6,0.0,150626,,*07
$GPGGA,142644,3507.1389,N,08956.1901,W,1,08,0.9,74.9,M,-29.5,M,,*40
$GPRMC,142644,A,3507.1389,N,08956.1901,W,3.0,0.0,150626,,*02
$GPGGA,142645,3507.1373,N,08956.1913,W,1,09,1.2,76.9,M,-29.5,M,,*4E
$GPRMC,142645,A,3507.1373,N,08956.1913,W,2.6,0.0,150626,,*02
$GPGSA,A,3,5,12,15,18,21,24,25,29,31,,,,1.8,1.2,1.4*0D
$GPGSV,3,1,09,05,45,120,38,12,67,180,42,15,30,075,35,18,55,240,40*7B
$GPGSV,3,2,09,21,22,310,32,24,78,090,45,25,15,350,28,29,40,200,36*77
$GPGSV,3,3,09,31,60,060,41,,,,,,,,,,,,*47
$GPVTG,0.0,T,,M,2.6,N,4.9,K,A*04
$GPGGA,142646,3507.1370,N,08956.1915,W,1,08,0.8,77.6,M,-29.5,M,,*4C
$GPRMC,142646,A,3507.1370,N,08956.1915,W,2.9,0.0,150626,,*0B
$GPGGA,142647,3507.1394,N,08956.1904,W,1,07,0.9,76.2,M,-29.5,M,,*4C
$GPRMC,142647,A,3507.1394,N,08956.1904,W,2.6,0.0,150626,,*0F
####random_garbage_####@@##
$GPGGA,142648,3507.1378,N,08956.1916,W,1,08,0.7,75.8,M,-29.5,M,,*4A
$GPRMC,142648,A,3507.1378,N,08956.1916,W,2.2,0.0,150626,,*05
$GPGGA,142649,3507.1377,N,08956.1899,W,1,08,0.8,77.2,M,-29.5,M,,*45
$GPRMC,142649,A,3507.1377,N,08956.1899,W,1.7,0.0,150626,,*0B
$GPGGA,142650,3507.1398,N,08956.1888,W,1,09,0.8,77.0,M,-29.5,M,,*4F
$GPRMC,142650,A,3507.1398,N,08956.1888,W,2.1,0.0,150626,,*07
$GPGSA,A,3,5,12,15,18,21,24,25,29,31,,,,1.7,0.8,1.5*08
$GPGSV,3,1,09,05,45,120,38,12,67,180,42,15,30,075,35,18,55,240,40*7B
$GPGSV,3,2,09,21,22,310,32,24,78,090,45,25,15,350,28,29,40,200,36*77
$GPGSV,3,3,09,31,60,060,41,,,,,,,,,,,,*47
$GPVTG,0.0,T,,M,2.1,N,3.9,K,A*04
$GPGGA,142651,3507.1403,N,08956.1883,W,1,08,0.7,76.4,M,-29.5,M,,*4B
$GPRMC,142651,A,3507.1403,N,08956.1883,W,2.6,0.0,150626,,*0F
$GPGGA,142652,3507.1438,N,08956.1905,W,1,09,1.0,75.7,M,-29.5,M,,*48
$GPRMC,142652,A,3507.1438,N,08956.1905,W,3.0,0.0,150626,,*0C
$GPGGA,142653,3507.1448,N,08956.1905,W,1,10,1.2,76.1,M,-29.5,M,,*41
$GPRMC,142653,A,3507.1448,N,08956.1905,W,3.0,0.0,150626,,*0A
$GPGGA,142654,3507.1431,N,08956.1918,W,1,10,1.3,77.3,M,-29.5,M,,*46
$GPRMC,142654,A,3507.1431,N,08956.1918,W,2.1,0.0,150626,,*0F
$GPGGA,142655,3507.1432,N,08956.1872,W,1,10,0.9,76.2,M,-29.5,M,,*42
$GPRMC,142655,A,3507.1432,N,08956.1872,W,2.9,0.0,150626,,*08
$GPGSA,A,3,5,12,15,18,21,24,25,29,31,32,,,1.7,0.9,1.5*08
$GPGSV,3,1,10,05,45,120,38,12,67,180,42,15,30,075,35,18,55,240,40*73
$GPGSV,3,2,10,21,22,310,32,24,78,090,45,25,15,350,28,29,40,200,36*7F
$GPGSV,3,3,10,31,60,060,41,32,35,145,37,,,,,,,,*7C
$GPVTG,0.0,T,,M,2.9,N,5.4,K,A*07
$GPGGA,142656,3507.1465,N,08956.1876,W,1,08,1.2,77.3,M,-29.5,M,,*44
$GPRMC,142656,A,3507.1465,N,08956.1876,W,2.0,0.0,150626,,*04
$GPGGA,142657,3507.1459,N,08956.1891,W,1,08,1.2,76.4,M,-29.5,M,,*45
$GPRMC,142657,A,3507.1459,N,08956.1891,W,2.9,0.0,150626,,*0A
$GPGGA,142658,3507.1489,N,08956.1886,W,1,10,0.9,75.6,M,-29.5,M,,*43
$GPRMC,142658,A,3507.1489,N,08956.1886,W,2.0,0.0,150626,,*07
$GPGGA,142659,3507.1467,N,08956.1903,W,1,08,0.9,76.7,M,-29.5,M,,*45
$GPRMC,142659,A,3507.1467,N,08956.1903,W,2.4,0.0,150626,,*0E
$GPGGA,142700,3507.1511,N,08956.1908,W,1,08,0.8,76.4,M,-29.5,M,,*41
$GPRMC,142700,A,3507.1511,N,08956.1908,W,2.0,0.0,150626,,*0C
$GPGSA,A,3,5,12,15,18,21,24,25,29,,,,,1.4,0.8,1.2*0E
$GPGSV,2,1,08,05,45,120,38,12,67,180,42,15,30,075,35,18,55,240,40*7B
$GPGSV,2,2,08,21,22,310,32,24,78,090,45,25,15,350,28,29,40,200,36*77
$GPVTG,0.0,T,,M,2.0,N,3.7,K,A*0B
$GPGGA,142701,3507.1475,N,08956.1870,W,1,08,0.9,74.7,M,-29.5,M,,*4D
$GPRMC,142701,A,3507.1475,N,08956.1870,W,3.2,0.0,150626,,*03
$GPGGA,142702,3507.1496,N,08956.1924,W,1,08,0.9,76.1,M,-29.5,M,,*47
$GPRMC,142702,A,3507.1496,N,08956.1924,W,3.2,0.0,150626,,*0D
$GPGGA,142703,3507.1496,N,08956.1919,W,1,09,0.8,76.1,M,-29.5,M,,*48
$GPRMC,142703,A,3507.1496,N,08956.1919,W,2.9,0.0,150626,,*08
$GPGGA,142704,3507.1523,N,08956.1887,W,1,08,1.2,76.9,M,-29.5,M,,*44
$GPRMC,142704,A,3507.1523,N,08956.1887,W,2.5,0.0,150626,,*0A
$GPGGA,142705,3507.1512,N,08956.1919,W,1,10,1.0,75.7,M,-29.5,M,,*47
$GPRMC,142705,A,3507.1512,N,08956.1919,W,2.6,0.0,150626,,*0C
$GPGSA,A,3,5,12,15,18,21,24,25,29,31,32,,,1.8,1.0,1.5*0F
$GPGSV,3,1,10,05,45,120,38,12,67,180,42,15,30,075,35,18,55,240,40*73
$GPGSV,3,2,10,21,22,310,32,24,78,090,45,25,15,350,28,29,40,200,36*7F
$GPGSV,3,3,10,31,60,060,41,32,35,145,37,,,,,,,,*7C
$GPVTG,0.0,T,,M,2.6,N,4.9,K,A*04
$GPGGA,142706,3507.1577,N,08956.1884,W,1,10,0.9,75.7,M,-29.5,M,,*4A
$GPRMC,142706,A,3507.1577,N,08956.1884,W,2.4,0.0,150626,,*0B
$GPGGA,142707,3507.1530,N,08956.1910,W,1,09,1.1,77.0,M,-29.5,M,,*40
$GPRMC,142707,A,3507.1530,N,08956.1910,W,2.2,0.0,150626,,*03
$GPGGA,142708,3507.1574,N,08956.1870,W,1,08,1.2,76.9,M,-29.5,M,,*42
$GPRMC,142708,A,3507.1574,N,08956.1870,W,2.7,0.0,150626,,*0E
$GPGGA,142709,3507.1576,N,08956.1890,W,1,07,1.1,76.5,M,-29.5,M,,*4F
$GPRMC,142709,A,3507.1576,N,08956.1890,W,2.9,0.0,150626,,*0D
$GPGGA,142710,3507.1569,N,08956.1902,W,1,09,1.1,76.7,M,-29.5,M,,*4F
$GPRMC,142710,A,3507.1569,N,08956.1902,W,2.3,0.0,150626,,*0B
$GPGSA,A,3,5,12,15,18,21,24,25,29,31,,,,1.7,1.1,1.3*06
$GPGSV,3,1,09,05,45,120,38,12,67,180,42,15,30,075,35,18,55,240,40*7B
$GPGSV,3,2,09,21,22,310,32,24,78,090,45,25,15,350,28,29,40,200,36*77
$GPGSV,3,3,09,31,60,060,41,,,,,,,,,,,,*47
$GPVTG,0.0,T,,M,2.3,N,4.3,K,A*0B
$PGRMM,WGS 84*06
$GPGGA,142711,3507.1567,N,08956.1884,W,1,09,0.8,75.0,M,-29.5,M,,*43
$GPRMC,142711,A,3507.1567,N,08956.1884,W,2.3,0.0,150626,,*0B
$GPGGA,142712,3507.1546,N,08956.1903,W,1,09,0.8,75.8,M,-29.5,M,,*45
$GPRMC,142712,A,3507.1546,N,08956.1903,W,2.1,0.0,150626,,*07
$GPGGA,142713,3507.1555,N,08956.1913,W,1,07,0.8,76.9,M,-29.5,M,,*4B
$GPRMC,142713,A,3507.1555,N,08956.1913,W,2.4,0.0,150626,,*00
$GPGGA,142714,3507.1567,N,08956.1919,W,1,09,0.8,73.7,M,-29.5,M,,*42
$GPRMC,142714,A,3507.1567,N,08956.1919,W,1.5,0.0,150626,,*0E
$GPGGA,142715,3507.1581,N,08956.1897,W,1,09,1.0,77.1,M,-29.5,M,,*47
$GPRMC,142715,A,3507.1581,N,08956.1897,W,2.2,0.0,150626,,*04
$GPGSA,A,3,5,12,15,18,21,24,25,29,31,,,,1.8,1.0,1.5*0E
$GPGSV,3,1,09,05,45,120,38,12,67,180,42,15,30,075,35,18,55,240,40*7B
$GPGSV,3,2,09,21,22,310,32,24,78,090,45,25,15,350,28,29,40,200,36*77
$GPGSV,3,3,09,31,60,060,41,,,,,,,,,,,,*47
$GPVTG,0.0,T,,M,2.2,N,4.0,K,A*09
$GPGGA,142716,3507.1601,N,08956.1913,W,1,08,1.2,77.4,M,-29.5,M,,*44
$GPRMC,142716,A,3507.1601,N,08956.1913,W,2.5,0.0,150626,,*06
$GPGGA,142717,3507.1554,N,08956.1913,W,1,10,1.1,76.0,M,-29.5,M,,*49
$GPRMC,142717,A,3507.1554,N,08956.1913,W,1.9,0.0,150626,,*0B
$GPGGA,142718,3507.1634,N,08956.1898,W,1,08,1.2,77.6,M,-29.5,M,,*4C
$GPRMC,142718,A,3507.1634,N,08956.1898,W,2.1,0.0,150626,,*08
$GPGGA,142719,3507.1607,N,08956.1910,W,1,10,0.8,75.5,M,-29.5,M,,*4F
$GPRMC,142719,A,3507.1607,N,08956.1910,W,2.0,0.0,150626,,*09
$GPGGA,142720,3507.1625,N,08956.1885,W,1,09,1.2,74.6,M,-29.5,M,,*49
$GPRMC,142720,A,3507.1625,N,08956.1885,W,3.2,0.0,150626,,*0D
$GPGSA,A,3,5,12,15,18,21,24,25,29,31,,,,1.6,1.2,1.1*06
$GPGSV,3,1,09,05,45,120,38,12,67,180,42,15,30,075,35,18,55,240,40*7B
$GPGSV,3,2,09,21,22,310,32,24,78,090,45,25,15,350,28,29,40,200,36*77
$GPGSV,3,3,09,31,60,060,41,,,,,,,,,,,,*47
$GPVTG,0.0,T,,M,3.2,N,6.0,K,A*0A
$GPGGA,142721,3507.1633,N,08956.1907,W,1,08,1.2,77.0,M,-29.5,M,,*40
$GPRMC,142721,A,3507.1633,N,08956.1907,W,2.7,0.0,150626,,*04
$GPGGA,142722,3507.1618,N,08956.1926,W,1,08,1.1,76.9,M,-29.5,M,,*42
$GPRMC,142722,A,3507.1618,N,08956.1926,W,2.9,0.0,150626,,*03
$GPGGA,142723,3507.1690,N,08956.1872,W,1,10,0.7,75.5,M,-29.5,M,,*42
$GPRMC,142723,A,3507.1690,N,08956.1872,W,2.1,0.0,150626,,*0A
$GPGGA,142724,3507.1645,N,08956.1878,W,1,08,1.2,76.0,M,-29.5,M,,*4C
$GPRMC,142724,A,3507.1645,N,08956.1878,W,2.1,0.0,150626,,*0F
$GPGGA,142725,3507.1675,N,08956.1882,W,1,09,1.2,76.4,M,-29.5,M,,*4E
$GPRMC,142725,A,3507.1675,N,08956.1882,W,2.9,0.0,150626,,*00
$GPGSA,A,3,5,12,15,18,21,24,25,29,31,,,,2.1,1.2,1.7*04
$GPGSV,3,1,09,05,45,120,38,12,67,180,42,15,30,075,35,18,55,240,40*7B
$GPGSV,3,2,09,21,22,310,32,24,78,090,45,25,15,350,28,29,40,200,36*77
$GPGSV,3,3,09,31,60,060,41,,,,,,,,,,,,*47
$GPVTG,0.0,T,,M,2.9,N,5.4,K,A*07
$GPGGA,142726,3507.1695,N,08956.1885,W,1,09,0.9,76.2,M,-29.5,M,,*48
$GPRMC,142726,A,3507.1695,N,08956.1885,W,2.5,0.0,150626,,*06
$GPGGA,142726,3511.1234,N,08956.5678,W,1,08,0.9,76.0,M,-29.5,M,,
$GPGGA,142727,3507.1688,N,08956.1889,W,1,09,0.9,76.3,M,-29.5,M,,*48
$GPRMC,142727,A,3507.1688,N,08956.1889,W,2.5,0.0,150626,,*07
$GPGGA,142728,3507.1689,N,08956.1906,W,1,08,1.2,76.9,M,-29.5,M,,*41
$GPRMC,142728,A,3507.1689,N,08956.1906,W,2.3,0.0,150626,,*09
$PGRMM,WGS 84*06
$GPGGA,142729,3507.1682,N,08956.1914,W,1,08,1.3,75.3,M,-29.5,M,,*40
$GPRMC,142729,A,3507.1682,N,08956.1914,W,2.4,0.0,150626,,*07
$GPGGA,142730,3507.1698,N,08956.1915,W,1,08,0.9,77.0,M,-29.5,M,,*48
$GPRMC,142730,A,3507.1698,N,08956.1915,W,1.9,0.0,150626,,*0B
$GPGSA,A,3,5,12,15,18,21,24,25,29,,,,,1.4,0.9,1.1*0C
$GPGSV,2,1,08,05,45,120,38,12,67,180,42,15,30,075,35,18,55,240,40*7B
$GPGSV,2,2,08,21,22,310,32,24,78,090,45,25,15,350,28,29,40,200,36*77
$GPVTG,0.0,T,,M,1.9,N,3.5,K,A*03
$GPGGA,142731,3507.1723,N,08956.1920,W,1,09,0.8,77.3,M,-29.5,M,,*4D
$GPRMC,142731,A,3507.1723,N,08956.1920,W,2.4,0.0,150626,,*03
$GPGGA,142732,3507.1716,N,08956.1873,W,1,07,1.3,77.1,M,-29.5,M,,*49
$GPRMC,142732,A,3507.1716,N,08956.1873,W,3.3,0.0,150626,,*07
$GPGGA,142733,3507.1726,N,08956.1943,W,1,07,0.7,76.3,M,-29.5,M,,*4F
$GPRMC,142733,A,3507.1726,N,08956.1943,W,2.5,0.0,150626,,*00
$GPGGA,142734,3507.1731,N,08956.1917,W,1,09,1.1,77.1,M,-29.5,M,,*45
$GPRMC,142734,A,3507.1731,N,08956.1917,W,2.1,0.0,150626,,*04
$GPGGA,142735,3507.1717,N,08956.1882,W,1,07,0.9,75.4,M,-29.5,M,,*4D
$GPRMC,142735,A,3507.1717,N,08956.1882,W,2.8,0.0,150626,,*05
$GPGSA,A,3,5,12,15,18,21,24,25,,,,,,1.6,0.9,1.3*07
$GPGSV,2,1,07,05,45,120,38,12,67,180,42,15,30,075,35,18,55,240,40*74
$GPGSV,2,2,07,21,22,310,32,24,78,090,45,25,15,350,28,,,,*40
$GPVTG,0.0,T,,M,2.8,N,5.2,K,A*00
$GPGGA,142736,3507.1739,N,08956.1902,W,1,08,0.8,75.4,M,-29.5,M,,*45
$GPRMC,142736,A,3507.1739,N,08956.1902,W,2.2,0.0,150626,,*09
$GPGGA,142737,3507.1749,N,08956.1909,W,1,08,1.1,77.4,M,-29.5,M,,*42
$GPRMC,142737,A,3507.1749,N,08956.1909,W,3.0,0.0,150626,,*07
$GPGGA,142738,3507.1783,N,08956.1902,W,1,07,1.0,76.4,M,-29.5,M,,*4F
$GPRMC,142738,A,3507.1783,N,08956.1902,W,2.1,0.0,150626,,*05
$GPGGA,142739,3507.1768,N,08956.1877,W,1,08,0.7,76.8,M,-29.5,M,,*4D
$GPRMC,142739,A,3507.1768,N,08956.1877,W,3.3,0.0,150626,,*01
$GPGGA,142740,3507.1767,N,08956.1924,W,1,09,0.9,77.0,M,-29.5,M,,*4D
$GPRMC,142740,A,3507.1767,N,08956.1924,W,2.6,0.0,150626,,*03
$GPGSA,A,3,5,12,15,18,21,24,25,29,31,,,,1.9,0.9,1.7*05
$GPGSV,3,1,09,05,45,120,38,12,67,180,42,15,30,075,35,18,55,240,40*7B
$GPGSV,3,2,09,21,22,310,32,24,78,090,45,25,15,350,28,29,40,200,36*77
$GPGSV,3,3,09,31,60,060,41,,,,,,,,,,,,*47
$GPVTG,0.0,T,,M,2.6,N,4.8,K,A*05
$GPGGA,142741,3507.1774,N,08956.1899,W,1,10,0.9,77.4,M,-29.5,M,,*45
$GPRMC,142741,A,3507.1774,N,08956.1899,W,1.9,0.0,150626,,*0B
####random_garbage_####@@##
$GPGGA,142742,3507.1779,N,08956.1875,W,1,08,1.3,76.6,M,-29.5,M,,*48
$GPRMC,142742,A,3507.1779,N,08956.1875,W,2.0,0.0,150626,,*0D
$GPGGA,142743,3507.1816,N,08956.1895,W,1,07,1.3,75.5,M,-29.5,M,,*4E
$GPRMC,142743,A,3507.1816,N,08956.1895,W,2.1,0.0,150626,,*05
$GPGGA,142744,3507.1803,N,08956.1877,W,1,09,0.9,77.4,M,-29.5,M,,*47
$GPRMC,142744,A,3507.1803,N,08956.1877,W,3.8,0.0,150626,,*02
$GPGGA,142745,3507.1808,N,08956.1922,W,1,08,0.7,76.4,M,-29.5,M,,*42
$GPRMC,142745,A,3507.1808,N,08956.1922,W,2.0,0.0,150626,,*00
$GPGSA,A,3,5,12,15,18,21,24,25,29,,,,,1.7,0.7,1.5*05
$GPGSV,2,1,08,05,45,120,38,12,67,180,42,15,30,075,35,18,55,240,40*7B
$GPGSV,2,2,08,21,22,310,32,24,78,090,45,25,15,350,28,29,40,200,36*77
$GPVTG,0.0,T,,M,2.0,N,3.7,K,A*0B
$GPGGA,142746,3507.1825,N,08956.1925,W,1,08,0.8,75.7,M,-29.5,M,,*46
$GPRMC,142746,A,3507.1825,N,08956.1925,W,2.5,0.0,150626,,*0E
$GPGGA,142747,3507.1819,N,08956.1890,W,1,08,0.9,77.5,M,-29.5,M,,*46
$GPRMC,142747,A,3507.1819,N,08956.1890,W,2.1,0.0,150626,,*0B
$GPGGA,142748,3507.1863,N,08956.1890,W,1,08,1.3,76.7,M,-29.5,M,,*4C
$GPRMC,142748,A,3507.1863,N,08956.1890,W,2.4,0.0,150626,,*0C
$GPGGA,142749,3507.1851,N,08956.1916,W,1,07,1.2,76.3,M,-29.5,M,,*49
$GPRMC,142749,A,3507.1851,N,08956.1916,W,2.4,0.0,150626,,*03

$GPGGA,142750,3507.1827,N,08956.1880,W,1,08,1.3,75.6,M,-29.5,M,,*46
$GPRMC,142750,A,3507.1827,N,08956.1880,W,2.2,0.0,150626,,*02
$GPGSA,A,3,5,12,15,18,21,24,25,29,,,,,1.7,1.3,1.1*04
$GPGSV,2,1,08,05,45,120,38,12,67,180,42,15,30,075,35,18,55,240,40*7B
$GPGSV,2,2,08,21,22,310,32,24,78,090,45,25,15,350,28,29,40,200,36*77
$GPVTG,0.0,T,,M,2.2,N,4.1,K,A*08
$GPGGA,142751,3507.1871,N,08956.1925,W,1,07,0.8,77.7,M,-29.5,M,,*4C
$GPRMC,142751,A,3507.1871,N,08956.1925,W,3.2,0.0,150626,,*0F
$GPGGA,142752,3507.1862,N,08956.1887,W,1,07,1.1,78.0,M,-29.5,M,,*44
$GPRMC,142752,A,3507.1862,N,08956.1887,W,2.4,0.0,150626,,*00
$GPGGA,142753,3507.1852,N,08956.1886,W,1,08,1.1,75.3,M,-29.5,M,,*46
$GPRMC,142753,A,3507.1852,N,08956.1886,W,2.1,0.0,150626,,*06
$GPGGA,142754,3507.1834,N,08956.1895,W,1,08,0.7,76.4,M,-29.5,M,,*40
$GPRMC,142754,A,3507.1834,N,08956.1895,W,2.1,0.0,150626,,*03

$GPGGA,142755,3507.1866,N,08956.1880,W,1,08,1.1,76.9,M,-29.5,M,,*48
$GPRMC,142755,A,3507.1866,N,08956.1880,W,2.6,0.0,150626,,*06
$GPGSA,A,3,5,12,15,18,21,24,25,29,,,,,1.6,1.1,1.2*04
$GPGSV,2,1,08,05,45,120,38,12,67,180,42,15,30,075,35,18,55,240,40*7B
$GPGSV,2,2,08,21,22,310,32,24,78,090,45,25,15,350,28,29,40,200,36*77
$GPVTG,0.0,T,,M,2.6,N,4.7,K,A*0A
$GPGGA,142756,3507.1906,N,08956.1925,W,1,10,0.8,77.6,M,-29.5,M,,*4D
$GPRMC,142756,A,3507.1906,N,08956.1925,W,2.1,0.0,150626,,*0B
$GPGGA,142757,3507.1881,N,08956.1880,W,1,10,1.3,77.9,M,-29.5,M,,*49
$GPRMC,142757,A,3507.1881,N,08956.1880,W,3.1,0.0,150626,,*0B
$GPGGA,142758,3507.1907,N,08956.1877,W,1,08,1.2,76.4,M,-29.5,M,,*45
$GPRMC,142758,A,3507.1907,N,08956.1877,W,3.4,0.0,150626,,*06
$GPGGA,142759,3507.1907,N,08956.1908,W,1,08,1.3,77.0,M,-29.5,M,,*49
$GPRMC,142759,A,3507.1907,N,08956.1908,W,2.9,0.0,150626,,*02
$GPGGA,142800,3507.1941,N,08956.1862,W,1,09,0.9,74.4,M,-29.5,M,,*48
$GPRMC,142800,A,3507.1941,N,08956.1862,W,2.8,0.0,150626,,*0F
$GPGSA,A,3,5,12,15,18,21,24,25,29,31,,,,1.8,0.9,1.6*05
$GPGSV,3,1,09,05,45,120,38,12,67,180,42,15,30,075,35,18,55,240,40*7B
$GPGSV,3,2,09,21,22,310,32,24,78,090,45,25,15,350,28,29,40,200,36*77
$GPGSV,3,3,09,31,60,060,41,,,,,,,,,,,,*47
$GPVTG,0.0,T,,M,2.8,N,5.2,K,A*00
$GPGGA,142801,3507.1931,N,08956.1914,W,1,08,1.1,75.7,M,-29.5,M,,*44
$GPRMC,142801,A,3507.1931,N,08956.1914,W,2.5,0.0,150626,,*04
$GPGGA,142802,3507.1899,N,08956.1923,W,1,09,0.8,76.3,M,-29.5,M,,*4E
$GPRMC,142802,A,3507.1899,N,08956.1923,W,2.8,0.0,150626,,*0D
$GPGGA,142803,3507.1971,N,08956.1906,W,1,08,1.0,75.3,M,-29.5,M,,*44
$GPRMC,142803,A,3507.1971,N,08956.1906,W,2.2,0.0,150626,,*06
$PGRMM,WGS 84*06
$GPGGA,142804,3507.1924,N,08956.1879,W,1,08,1.2,76.1,M,-29.5,M,,*49
$GPRMC,142804,A,3507.1924,N,08956.1879,W,3.3,0.0,150626,,*08
$GPGGA,142805,3507.1956,N,08956.1879,W,1,07,0.9,76.2,M,-29.5,M,,*4B
$GPRMC,142805,A,3507.1956,N,08956.1879,W,2.6,0.0,150626,,*08
$GPGSA,A,3,5,12,15,18,21,24,25,,,,,,2.0,0.9,1.8*09
$GPGSV,2,1,07,05,45,120,38,12,67,180,42,15,30,075,35,18,55,240,40*74
$GPGSV,2,2,07,21,22,310,32,24,78,090,45,25,15,350,28,,,,*40
$GPVTG,0.0,T,,M,2.6,N,4.7,K,A*0A
$GPGGA,142806,3507.1966,N,08956.1903,W,1,08,1.1,75.8,M,-29.5,M,,*48
$GPRMC,142806,A,3507.1966,N,08956.1903,W,2.1,0.0,150626,,*03
$GPGGA,142807,3507.1985,N,08956.1901,W,1,09,0.9,75.8,M,-29.5,M,,*4E
$GPRMC,142807,A,3507.1985,N,08956.1901,W,1.7,0.0,150626,,*08
$GPGGA,142808,3507.1962,N,08956.1884,W,1,09,1.0,77.5,M,-29.5,M,,*43
$GPRMC,142808,A,3507.1962,N,08956.1884,W,2.4,0.0,150626,,*02
$GPGGA,142809,3507.1986,N,08956.1918,W,1,09,1.0,76.0,M,-29.5,M,,*48
$GPRMC,142809,A,3507.1986,N,08956.1918,W,2.8,0.0,150626,,*01
$GPGGA,142810,3507.1991,N,08956.1884,W,1,09,0.8,76.9,M,-29.5,M,,*42
$GPRMC,142810,A,3507.1991,N,08956.1884,W,3.1,0.0,150626,,*03
$GPGSA,A,3,5,12,15,18,21,24,25,29,31,,,,1.7,0.8,1.5*08
$GPGSV,3,1,09,05,45,120,38,12,67,180,42,15,30,075,35,18,55,240,40*7B
$GPGSV,3,2,09,21,22,310,32,24,78,090,45,25,15,350,28,29,40,200,36*77
$GPGSV,3,3,09,31,60,060,41,,,,,,,,,,,,*47
$GPVTG,0.0,T,,M,3.1,N,5.8,K,A*02
$GPGGA,142811,3507.1979,N,08956.1884,W,1,08,1.0,76.1,M,-29.5,M,,*45
$GPRMC,142811,A,3507.1979,N,08956.1884,W,3.1,0.0,150626,,*04
$GPGGA,142812,3507.1980,N,08956.1901,W,1,10,1.0,76.4,M,-29.5,M,,*40
$GPRMC,142812,A,3507.1980,N,08956.1901,W,2.7,0.0,150626,,*0A
$GPGGA,142813,3507.2006,N,08956.1909,W,1,09,0.9,76.0,M,-29.5,M,,*49
$GPRMC,142813,A,3507.2006,N,08956.1909,W,2.6,0.0,150626,,*06
$GPGGA,142814,3507.2014,N,08956.1879,W,1,09,1.1,75.4,M,-29.5,M,,*45
$GPRMC,142814,A,3507.2014,N,08956.1879,W,3.0,0.0,150626,,*03
$GPGGA,142815,3507.2032,N,08956.1893,W,1,10,1.0,75.0,M,-29.5,M,,*49
$GPRMC,142815,A,3507.2032,N,08956.1893,W,2.7,0.0,150626,,*04
$GPGSA,A,3,5,12,15,18,21,24,25,29,31,32,,,1.6,1.0,1.3*07
$GPGSV,3,1,10,05,45,120,38,12,67,180,42,15,30,075,35,18,55,240,40*73
$GPGSV,3,2,10,21,22,310,32,24,78,090,45,25,15,350,28,29,40,200,36*7F
$GPGSV,3,3,10,31,60,060,41,32,35,145,37,,,,,,,,*7C
$GPVTG,0.0,T,,M,2.7,N,4.9,K,A*05
$GPGGA,142816,3507.2030,N,08956.1888,W,1,07,0.9,75.6,M,-29.5,M,,*4A
$GPRMC,142816,A,3507.2030,N,08956.1888,W,2.1,0.0,150626,,*09
$GPGGA,142817,3507.2023,N,08956.1871,W,1,10,1.1,77.8,M,-29.5,M,,*4C
$GPRMC,142817,A,3507.2023,N,08956.1871,W,2.2,0.0,150626,,*0F
$GPGGA,142818,3507.2044,N,08956.1880,W,1,08,1.2,76.0,M,-29.5,M,,*4F
$GPRMC,142818,A,3507.2044,N,08956.1880,W,2.4,0.0,150626,,*09
$GPGGA,142819,3507.2080,N,08956.1887,W,1,09,1.2,77.2,M,-29.5,M,,*43
$GPRMC,142819,A,3507.2080,N,08956.1887,W,2.0,0.0,150626,,*03
$GPGGA,142820,3507.2085,N,08956.1912,W,1,09,0.9,77.9,M,-29.5,M,,*40
$GPRMC,142820,A,3507.2085,N,08956.1912,W,2.4,0.0,150626,,*05
$GPGSA,A,3,5,12,15,18,21,24,25,29,31,,,,1.9,0.9,1.7*05
$GPGSV,3,1,09,05,45,120,38,12,67,180,42,15,30,075,35,18,55,240,40*7B
$GPGSV,3,2,09,21,22,310,32,24,78,090,45,25,15,350,28,29,40,200,36*77
$GPGSV,3,3,09,31,60,060,41,,,,,,,,,,,,*47
$GPVTG,0.0,T,,M,2.4,N,4.5,K,A*0A
$GPGGA,142821,3507.2046,N,08956.1895,W,1,08,1.1,77.7,M,-29.5,M,,*46
$GPRMC,142821,A,3507.2046,N,08956.1895,W,2.1,0.0,150626,,*00
$GPGGA,142822,3507.2092,N,08956.1919,W,1,08,1.0,75.8,M,-29.5,M,,*45
$GPRMC,142822,A,3507.2092,N,08956.1919,W,2.4,0.0,150626,,*0A
$GPGGA,142823,3507.2087,N,08956.1910,W,1,09,1.3,75.2,M,-29.5,M,,*41
$GPRMC,142823,A,3507.2087,N,08956.1910,W,1.8,0.0,150626,,*09
$GPGGA,142824,3507.2075,N,08956.1928,W,1,09,1.3,76.6,M,-29.5,M,,*47
$GPRMC,142824,A,3507.2075,N,08956.1928,W,2.4,0.0,150626,,*07
$GPGGA,142825,3507.2081,N,08956.1896,W,1,08,0.9,77.1,M,-29.5,M,,*45
$GPRMC,142825,A,3507.2081,N,08956.1896,W,2.5,0.0,150626,,*08
$GPGSA,A,3,5,12,15,18,21,24,25,29,,,,,1.8,0.9,1.6*07
$GPGSV,2,1,08,05,45,120,38,12,67,180,42,15,30,075,35,18,55,240,40*7B
$GPGSV,2,2,08,21,22,310,32,24,78,090,45,25,15,350,28,29,40,200,36*77
$GPVTG,0.0,T,,M,2.5,N,4.6,K,A*08
$GPGGA,142826,3507.2115,N,08956.1929,W,1,09,0.8,75.7,M,-29.5,M,,*4B
$GPRMC,142826,A,3507.2115,N,08956.1929,W,2.1,0.0,150626,,*06
$GPGGA,142827,3507.2061,N,08956.1927,W,1,09,0.8,75.7,M,-29.5,M,,*46
$GPRMC,142827,A,3507.2061,N,08956.1927,W,2.7,0.0,150626,,*0D
$GPGGA,142828,3507.2138,N,08956.1929,W,1,08,1.1,76.7,M,-29.5,M,,*40
$GPRMC,142828,A,3507.2138,N,08956.1929,W,2.6,0.0,150626,,*00
$GPGGA,142829,3507.2128,N,08956.1886,W,1,08,0.9,75.8,M,-29.5,M,,*41
$GPRMC,142829,A,3507.2128,N,08956.1886,W,2.8,0.0,150626,,*0A
$GPGGA,142830,3507.2118,N,08956.1912,W,1,09,0.9,76.8,M,-29.5,M,,*44
$GPRMC,142830,A,3507.2118,N,08956.1912,W,2.6,0.0,150626,,*03
$GPGSA,A,3,5,12,15,18,21,24,25,29,31,,,,1.5,0.9,1.2*0C
$GPGSV,3,1,09,05,45,120,38,12,67,180,42,15,30,075,35,18,55,240,40*7B
$GPGSV,3,2,09,21,22,310,32,24,78,090,45,25,15,350,28,29,40,200,36*77
$GPGSV,3,3,09,31,60,060,41,,,,,,,,,,,,*47
$GPVTG,0.0,T,,M,2.6,N,4.8,K,A*05
$GPGGA,142831,3507.2105,N,08956.1915,W,1,09,0.8,76.6,M,-29.5,M,,*41
$GPRMC,142831,A,3507.2105,N,08956.1915,W,2.2,0.0,150626,,*0D
$GPGGA,142832,3507.2155,N,08956.1868,W,1,10,1.2,76.2,M,-29.5,M,,*4B
$GPRMC,142832,A,3507.2155,N,08956.1868,W,2.3,0.0,150626,,*01
$GPGGA,142833,3507.2166,N,08956.1896,W,1,08,1.2,76.5,M,-29.5,M,,*45
$GPRMC,142833,A,3507.2166,N,08956.1896,W,2.5,0.0,150626,,*07

$GPGGA,142833,35
$GPGGA,142834,3507.2159,N,08956.1891,W,1,07,1.2,76.4,M,-29.5,M,,*47
$GPRMC,142834,A,3507.2159,N,08956.1891,W,2.2,0.0,150626,,*0C
$GPGGA,142835,3507.2185,N,08956.1899,W,1,08,0.8,76.0,M,-29.5,M,,*4F
$GPRMC,142835,A,3507.2185,N,08956.1899,W,2.8,0.0,150626,,*0E
$GPGSA,A,3,5,12,15,18,21,24,25,29,,,,,1.9,0.8,1.7*06
$GPGSV,2,1,08,05,45,120,38,12,67,180,42,15,30,075,35,18,55,240,40*7B
$GPGSV,2,2,08,21,22,310,32,24,78,090,45,25,15,350,28,29,40,200,36*77
$GPVTG,0.0,T,,M,2.8,N,5.2,K,A*00
$GPGGA,142836,3507.2197,N,08956.1895,W,1,10,0.7,77.3,M,-29.5,M,,*47
$GPRMC,142836,A,3507.2197,N,08956.1895,W,3.0,0.0,150626,,*0B
$GPGGA,142837,3507.2181,N,08956.1901,W,1,08,0.8,75.6,M,-29.5,M,,*4C
$GPRMC,142837,A,3507.2181,N,08956.1901,W,2.4,0.0,150626,,*04
$GPGGA,142837,3511.1234,N,08956.5678,W,1,08,0.9,76.0,M,-29.5,M,,
$GPGGA,142838,3507.2208,N,08956.1885,W,1,08,1.2,75.5,M,-29.5,M,,*44
$GPRMC,142838,A,3507.2208,N,08956.1885,W,2.1,0.0,150626,,*01
$GPGGA,142839,3507.2202,N,08956.1885,W,1,09,0.9,76.3,M,-29.5,M,,*41
$GPRMC,142839,A,3507.2202,N,08956.1885,W,2.3,0.0,150626,,*08
$GPGGA,142840,3507.2213,N,08956.1898,W,1,08,0.8,77.1,M,-29.5,M,,*40
$GPRMC,142840,A,3507.2213,N,08956.1898,W,2.9,0.0,150626,,*00
$GPGSA,A,3,5,12,15,18,21,24,25,29,,,,,1.4,0.8,1.1*0D
$GPGSV,2,1,08,05,45,120,38,12,67,180,42,15,30,075,35,18,55,240,40*7B
$GPGSV,2,2,08,21,22,310,32,24,78,090,45,25,15,350,28,29,40,200,36*77
$GPVTG,0.0,T,,M,2.9,N,5.4,K,A*07
$GPGGA,142841,3507.2227,N,08956.1899,W,1,08,1.2,76.5,M,-29.5,M,,*49
$GPRMC,142841,A,3507.2227,N,08956.1899,W,2.4,0.0,150626,,*0A
$GPGGA,142842,3507.2221,N,08956.1900,W,1,08,0.9,77.3,M,-29.5,M,,*40
$GPRMC,142842,A,3507.2221,N,08956.1900,W,2.9,0.0,150626,,*03
$GPGGA,142843,3507.2189,N,08956.1871,W,1,10,1.0,77.2,M,-29.5,M,,*47
$GPRMC,142843,A,3507.2189,N,08956.1871,W,2.5,0.0,150626,,*08
$GPGGA,142844,3507.2239,N,08956.1905,W,1,09,1.1,75.9,M,-29.5,M,,*4A
$GPRMC,142844,A,3507.2239,N,08956.1905,W,2.9,0.0,150626,,*09
$GPGGA,142845,3507.2250,N,08956.1900,W,1,08,1.0,76.2,M,-29.5,M,,*49
$GPRMC,142845,A,3507.2250,N,08956.1900,W,2.7,270.0,150626,,*09
$GPGSA,A,3,5,12,15,18,21,24,25,29,,,,,1.5,1.0,1.1*05
$GPGSV,2,1,08,05,45,120,38,12,67,180,42,15,30,075,35,18,55,240,40*7B
$GPGSV,2,2,08,21,22,310,32,24,78,090,45,25,15,350,28,29,40,200,36*77
$GPVTG,270.0,T,,M,2.7,N,5.0,K,A*08
$GPGGA,142846,3507.2239,N,08956.1920,W,1,09,1.0,76.0,M,-29.5,M,,*44
$GPRMC,142846,A,3507.2239,N,08956.1920,W,3.3,270.0,150626,,*02
$GPGGA,142847,3507.2215,N,08956.1893,W,1,07,0.7,75.5,M,-29.5,M,,*4C
$GPRMC,142847,A,3507.2215,N,08956.1893,W,1.4,270.0,150626,,*01
$GPGGA,142848,3507.2234,N,08956.1910,W,1,09,1.1,77.3,M,-29.5,M,,*47
$GPRMC,142848,A,3507.2234,N,08956.1910,W,2.4,270.0,150626,,*04
$GPGGA,142849,3507.2233,N,08956.1931,W,1,07,0.9,76.4,M,-29.5,M,,*43
$GPRMC,142849,A,3507.2233,N,08956.1931,W,2.0,270.0,150626,,*05
$GPGGA,142850,3507.2259,N,08956.1957,W,1,08,0.9,75.7,M,-29.5,M,,*48
$GPRMC,142850,A,3507.2259,N,08956.1957,W,2.3,270.0,150626,,*02
$GPGSA,A,3,5,12,15,18,21,24,25,29,,,,,1.3,0.9,1.0*0A
$GPGSV,2,1,08,05,45,120,38,12,67,180,42,15,30,075,35,18,55,240,40*7B
$GPGSV,2,2,08,21,22,310,32,24,78,090,45,25,15,350,28,29,40,200,36*77
$GPVTG,270.0,T,,M,2.3,N,4.2,K,A*0F
$GPGGA,142851,3507.2225,N,08956.1975,W,1,08,0.7,77.3,M,-29.5,M,,*4A
$GPRMC,142851,A,3507.2225,N,08956.1975,W,3.0,270.0,150626,,*0A
$GPGGA,142852,3507.2258,N,08956.1973,W,1,08,0.8,75.2,M,-29.5,M,,*49
$GPRMC,142852,A,3507.2258,N,08956.1973,W,2.8,270.0,150626,,*0C
$GPGGA,142853,3507.2239,N,08956.1977,W,1,10,1.1,77.3,M,-29.5,M,,*49
$GPRMC,142853,A,3507.2239,N,08956.1977,W,1.8,270.0,150626,,*0D
$GPGGA,142854,3507.2270,N,08956.1977,W,1,09,1.0,76.1,M,-29.5,M,,*49
$GPRMC,142854,A,3507.2270,N,08956.1977,W,2.1,270.0,150626,,*0D
$GPGGA,142855,3507.2223,N,08956.1971,W,1,08,1.0,75.8,M,-29.5,M,,*43
$GPRMC,142855,A,3507.2223,N,08956.1971,W,2.9,270.0,150626,,*04
$GPGSA,A,3,5,12,15,18,21,24,25,29,,,,,1.8,1.0,1.5*0C
$GPGSV,2,1,08,05,45,120,38,12,67,180,42,15,30,075,35,18,55,240,40*7B
$GPGSV,2,2,08,21,22,310,32,24,78,090,45,25,15,350,28,29,40,200,36*77
$GPVTG,270.0,T,,M,2.9,N,5.3,K,A*05
$GPGGA,142856,3507.2244,N,08956.2004,W,1,09,0.9,75.4,M,-29.5,M,,*4C
$GPRMC,142856,A,3507.2244,N,08956.2004,W,1.9,270.0,150626,,*0D
$GPGGA,142857,3507.2230,N,08956.2015,W,1,09,1.1,77.4,M,-29.5,M,,*45
$GPRMC,142857,A,3507.2230,N,08956.2015,W,2.2,270.0,150626,,*07
$GPGGA,142858,3507.2218,N,08956.2010,W,1,09,1.2,75.7,M,-29.5,M,,*47
$GPRMC,142858,A,3507.2218,N,08956.2010,W,2.3,270.0,150626,,*06
$GPGGA,142859,3507.2247,N,08956.2020,W,1,08,1.1,77.8,M,-29.5,M,,*40
$GPRMC,142859,A,3507.2247,N,08956.2020,W,2.5,270.0,150626,,*08
$GPGGA,142900,3507.2217,N,08956.2023,W,1,08,1.1,75.5,M,-29.5,M,,*44
$GPRMC,142900,A,3507.2217,N,08956.2023,W,2.3,270.0,150626,,*05
$GPGSA,A,3,5,12,15,18,21,24,25,29,,,,,1.8,1.1,1.4*0C
$GPGSV,2,1,08,05,45,120,38,12,67,180,42,15,30,075,35,18,55,240,40*7B
$GPGSV,2,2,08,21,22,310,32,24,78,090,45,25,15,350,28,29,40,200,36*77
$GPVTG,270.0,T,,M,2.3,N,4.3,K,A*0E
$GPGGA,142901,3507.2257,N,08956.2047,W,1,08,1.3,75.8,M,-29.5,M,,*4C
$GPRMC,142901,A,3507.2257,N,08956.2047,W,3.5,270.0,150626,,*05
$GPGGA,142902,3507.2245,N,08956.2023,W,1,09,1.0,75.7,M,-29.5,M,,*43
$GPRMC,142902,A,3507.2245,N,08956.2023,W,2.4,270.0,150626,,*07
$GPGGA,142903,3507.2245,N,08956.2047,W,1,08,0.9,76.3,M,-29.5,M,,*4E
$GPRMC,142903,A,3507.2245,N,08956.2047,W,2.2,270.0,150626,,*02
####random_garbage_####@@##
$GPGGA,142904,3507.2281,N,08956.2055,W,1,09,1.1,75.6,M,-29.5,M,,*4C
$GPRMC,142904,A,3507.2281,N,08956.2055,W,2.0,270.0,150626,,*0C
$GPGGA,142905,3507.2243,N,08956.2063,W,1,08,1.0,76.8,M,-29.5,M,,*4B
$GPRMC,142905,A,3507.2243,N,08956.2063,W,2.9,270.0,150626,,*0F
$GPGSA,A,3,5,12,15,18,21,24,25,29,,,,,1.6,1.0,1.3*04
$GPGSV,2,1,08,05,45,120,38,12,67,180,42,15,30,075,35,18,55,240,40*7B
$GPGSV,2,2,08,21,22,310,32,24,78,090,45,25,15,350,28,29,40,200,36*77
$GPVTG,270.0,T,,M,2.9,N,5.5,K,A*03
$GPGGA,142906,3507.2265,N,08956.2091,W,1,10,1.3,76.6,M,-29.5,M,,*45
$GPRMC,142906,A,3507.2265,N,08956.2091,W,2.0,270.0,150626,,*0C
$GPGGA,142907,3507.2267,N,08956.2099,W,1,07,0.9,78.0,M,-29.5,M,,*4B
$GPRMC,142907,A,3507.2267,N,08956.2099,W,2.2,270.0,150626,,*05
$GPGGA,142908,3507.2236,N,08956.2099,W,1,09,0.7,76.1,M,-29.5,M,,*4F
$GPRMC,142908,A,3507.2236,N,08956.2099,W,2.7,270.0,150626,,*0B
$GPGGA,142909,3507.2233,N,08956.2119,W,1,08,1.0,75.0,M,-29.5,M,,*47
$GPRMC,142909,A,3507.2233,N,08956.2119,W,2.2,270.0,150626,,*03
$GPGGA,142910,3507.2252,N,08956.2102,W,1,07,0.8,76.7,M,-29.5,M,,*40
$GPRMC,142910,A,3507.2252,N,08956.2102,W,2.4,270.0,150626,,*00
$GPGSA,A,3,5,12,15,18,21,24,25,,,,,,1.4,0.8,1.2*05
$GPGSV,2,1,07,05,45,120,38,12,67,180,42,15,30,075,35,18,55,240,40*74
$GPGSV,2,2,07,21,22,310,32,24,78,090,45,25,15,350,28,,,,*40
$GPVTG,270.0,T,,M,2.4,N,4.5,K,A*0F
$GPGGA,142911,3507.2228,N,08956.2119,W,1,07,1.1,76.7,M,-29.5,M,,*4E
$GPRMC,142911,A,3507.2228,N,08956.2119,W,2.4,270.0,150626,,*06
$GPGGA,142912,3507.2266,N,08956.2117,W,1,10,1.3,76.7,M,-29.5,M,,*4D
$GPRMC,142912,A,3507.2266,N,08956.2117,W,2.5,270.0,150626,,*00
